Unnamed: 0,Landfill Name,Physical Address,City,State_x,County,Zip Code,Latitude,Longitude,State_y,"Age-Adjusted Incidence Rate - cases per 100,000",Average Annual Count,Recent Trend,Clean State
0.0,Anchorage Regional Landfill,15500 E. Eagle River Loop Road,Eagle River,AK,Anchorage,99577,61.29328100000001,-149.602138,0,0,0.0,0,0
4.0,Merrill Field Landfill,800 Merrill Field Drive,Anchorage,AK,Anchorage,99501,61.21266,-149.84011999999996,0,0,0.0,0,0
1.0,Capitol Disposal Landfill,5600 Tonsgard Court,Juneau,AK,Juneau,99801,58.3528,-134.4947,0,0,0.0,0,0
2.0,Central Peninsula Landfill (CPL),46915 Sterling Highway,Soldotna,AK,Kenai Peninsula,99669,60.44714000000001,-151.10369,0,0,0.0,0,0
5.0,Palmer Central Landfill,"1201 N. 49th State Street
Just off the Palmer-Wasilla Highway",Palmer,AK,Matanuska-Susitna,99645,61.59,-149.21,0,0,0.0,0,0
6.0,South Cushman Landfill,455 Sanduri Street,Fairbanks,AK,Fairbanks North Star,99701,64.80476,-147.70085, Alaska,386.2,317.0,falling,AK
7.0,Unalaska Landfill,1181 Summer Bay Road,Unalaska,AK,Aleutians West,99685,53.88463,-166.50656999999995,0,0,0.0,0,0
8.0,Advanced Disposal Cedar Hill Landfill,1319 N. Business Creek Road,Ragland,AL,St. Clair,35131,33.68345,-86.25272,0,0,0.0,0,0
9.0,Advanced Disposal Star Ridge Landfill,3301 Acmar Road,Moody,AL,St. Clair,35004,33.605270000000004,-86.51658,0,0,0.0,0,0
10.0,Arrowhead Landfill,"On Cahaba Road
Entrance at 626 Tayloe Road",Uniontown,AL,Perry,36786,32.413000000000004,-87.4685,0,0,0.0,0,0
11.0,Athens/Limestone County SLF MSWLF,"Strain Road
off Highway 31",Athens,AL,Limestone,35611,34.7634,-86.9399,0,0,0.0,0,0
12.0,Bishop Landfill Company,379 Pleasant Grove Cutoff Road,Albertville,AL,Marshall,35950,34.27823,-86.33707,0,0,0.0,0,0
13.0,Black Warrior Solid Waste Facility,3301 Landfill Drive,Coker,AL,Tuscaloosa,35452,33.243140000000004,-87.66585,0,0,0.0,0,0
14.0,Blount County/Nectar/Hayden LF & TS,2390 Armstrong Loop,Hayden,AL,Blount,35079,33.8888,-86.712,0,0,0.0,0,0
15.0,Brundidge Landfill,515 Cleanwater Drive,Brundidge,AL,Pike,36010,31.7041,-85.8299,0,0,0.0,0,0
16.0,Calhoun County SLF,3625 Morrisville Road,Anniston,AL,Calhoun,36201,33.675,-85.92,0,0,0.0,0,0
17.0,Chastang SLF,17045 Highway 43,Mt. Vernon,AL,Mobile,36560,31.06179,-88.02503,0,0,0.0,0,0
28.0,Irvington SLF,7195 Half Mile Road,Irvington,AL,Mobile,36544,30.490688,-88.210629,0,0,0.0,0,0
19.0,City of Decatur-Morgan County Regional MSW Landfill,500 Landfill Drive,Trinity,AL,Morgan,35673,34.6175,-87.10163,0,0,0.0,0,0
20.0,City of Dothan SLF MSWLF,1290 Burkett Road,Dothan,AL,Houston,36303,31.238766,-85.356721,0,0,0.0,0,0
21.0,Coffee County Sanitary Landfill,7733 Highway 125,Elba,AL,Coffee,36323,31.507053000000006,-86.000975,0,0,0.0,0,0
23.0,Cullman Environmental Waste Management Center,2805 AL Highway 69 South,Cullman,AL,Cullman,35057,34.02878,-86.90069,0,0,0.0,0,0
24.0,Eastern Area Landfill,2787 Alton Drive,Birmingham,AL,Jefferson,35210,33.5978,-86.6288,0,0,0.0,0,0
29.0,Jefferson County LF No. 1,101 Barber Boulevard,Gardendale,AL,Jefferson,35071,33.711,-86.87299999999998,0,0,0.0,0,0
30.0,Jefferson County LF No. 2,7035 Narrows Road,Pinson,AL,Jefferson,35126,33.7077,-86.7104,0,0,0.0,0,0
34.0,New Georgia MSWLF,2800 47th Avenue North,Birmingham,AL,Jefferson,35207,33.585,-86.815,0,0,0.0,0,0
41.0,Shannon SLF,2785 Shannon Oxmoor Road,Birmingham,AL,Jefferson,35211,33.42488,-86.85479000000002,0,0,0.0,0,0
25.0,Florence SLF MSWLF,"29485 Waterloo Road & Savannah Highway
State Highway 20",Florence,AL,Lauderdale,35630,34.806005,-87.714765,0,0,0.0,0,0
26.0,Florence SLF MSWLF (Old),Irvine Avenue,Florence,AL,Lauderdale,35630,34.803000000000004,-87.7058,0,0,0.0,0,0
27.0,Huntsville MSWLF,4100 Leeman Ferry Road SW,Huntsville,AL,Madison,35804,34.6885,-86.59200000000001,0,0,0.0,0,0
31.0,Magnolia Subtitle D MSW LF,15140 County Road 49,Summerdale,AL,Baldwin,36580,30.45727,-87.7761,0,0,0.0,0,0
33.0,Morris Farm Landfill,4 County Road 418,Hillsboro,AL,Lawrence,35643,34.70381,-87.22116,0,0,0.0,0,0
35.0,North Montgomery SLF MSWLF,115 Division Street,Montgomery,AL,Montgomery,36104,32.4131,-86.3245,0,0,0.0,0,0
36.0,Pine View SLF MSWLF,2730 Bryan Road,Dora,AL,Walker,35062,33.71458,-87.04981,0,0,0.0,0,0
37.0,Salem Landfill,4210 Lee Road 183,Opelika,AL,Lee,36804,32.65347,-85.2636,0,0,0.0,0,0
38.0,Sand Valley Landfill,3345 County Road 209,Collinsville,AL,DeKalb,35961,34.342,-85.86200000000002,0,0,0.0,0,0
40.0,Scottsboro Landfill,650 County Road 412,Hollywood,AL,Jackson,35768,34.756,-85.919,0,0,0.0,0,0
42.0,Shelby County Highway 70 Landfill,"4154 Highway 70
401 Landfill Road",Columbiana,AL,Shelby,35051,33.171785,-86.687566,0,0,0.0,0,0
43.0,Shoals Solid Waste Disposal Authority (SSWDA) LF,2015 Missouri Street Highway 43 S,Tuscumbia,AL,Colbert,35674,34.694,-87.6609,0,0,0.0,0,0
44.0,"Stones Throw Landfill, LLC",1303 Washington Boulevard,Tallassee,AL,Tallapoosa,36078,32.5154,-85.8311,0,0,0.0,0,0
45.0,Three Corners Landfill,2205 County Road 6,Piedmont,AL,Cherokee,36272,33.9962,-85.7254,0,0,0.0,0,0
46.0,Timberlands Landfill,22800 Highway 41,Brewton,AL,Escambia,36426,31.2593,-87.1923,0,0,0.0,0,0
47.0,"Turkey Trot Landfill, LLC",2328 Mannish Ryan Road,Citronelle,AL,Washington,36522,31.15848,-88.19,0,0,0.0,0,0
50.0,Willow Ridge Landfill,10512 Highway 13,Haleyville,AL,Winston,35565,34.17569,-87.60779000000002,0,0,0.0,0,0
52.0,City of Conway Landfill,4550 Highway 64 West,Conway,AR,Faulkner,72032,35.1119,-92.5068,0,0,0.0,0,0
55.0,City of Morrilton Landfill,51 Dump Road,Morrilton,AR,Conway,72110,35.1297,-92.6976,0,0,0.0,0,0
56.0,Craighead County Solid Waste Disposal Authority LF,238 County Road 476,Jonesboro,AR,Craighead,72404,35.719434,-90.68862,0,0,0.0,0,0
57.0,Crittenden County Sanitary Landfill,1299 Kuhn Road,West Memphis,AR,Crittenden,72301,35.13597,-90.25606,0,0,0.0,0,0
58.0,Eco-Vista Landfill,2210 Waste Management Drive,Springdale,AR,Washington,72762,36.140147,-94.256073,0,0,0.0,0,0
60.0,Fort Smith SLF,5900 Commerce Road,Fort Smith,AR,Sebastian,72916,35.2926,-94.3704,0,0,0.0,0,0
61.0,IESI Cherokee Village Landfill,100 Landfill Road,Cherokee Village,AR,Fulton,72529,36.28126,-91.63128,0,0,0.0,0,0
63.0,Jefferson County Landfill,6000 Gravel Pit Road,White Hall,AR,Jefferson,71602,34.34676,-92.19214,0,0,0.0,0,0
72.0,Shannon Road Landfill,7700 Shannon Road,Pine Bluff,AR,Jefferson,71603,34.204169,-92.09412,0,0,0.0,0,0
64.0,Little Rock City SW Landfill,10803 Ironton Cut Off Road,Little Rock,AR,Pulaski,72206,34.65129,-92.30241,0,0,0.0,0,0
66.0,Modelfill Landfill,3817 Mabelvale Pike,Little Rock,AR,Pulaski,72204,34.7124,-92.3318,0,0,0.0,0,0
73.0,Two Pine Landfill,100 Two Pine Drive,North Little Rock,AR,Pulaski,72117,34.8371,-92.1497,0,0,0.0,0,0
65.0,Mississippi County LF,1695 East CR-506,Luxora,AR,Mississippi,72358,35.78,-89.97,0,0,0.0,0,0
68.0,Northeast AR RSWMD Landfill Phases 2 & 3,1810 Greene 890 Road,Paragould,AR,Greene,72450,36.085,-90.4539,0,0,0.0,0,0
69.0,Ozark Ridge Landfill,"10140 Ozark Ridge Access Lane
County Road 47 (South New Hope Road) and Hwy 7",Danville,AR,Yell,72833,35.09,-93.2079,0,0,0.0,0,0
70.0,"Rolling Meadows Landfill, Inc.",1420 Hamric Road,Hazen,AR,Prairie,72064,34.8476,-91.59002,0,0,0.0,0,0
71.0,Saline County RWMD LF,18511 W. Sardis Road,Bauxite,AR,Saline,72011,34.5606,-92.4818,0,0,0.0,0,0
74.0,Union County Recycling & Disposal Facility,3083 Smackover Highway,El Dorado,AR,Union,71730,33.32,-92.6855,0,0,0.0,0,0
75.0,Upper Southwest RSWMD,319 Landfill Road,Nashville,AR,Howard,71852,34.075,-93.868,0,0,0.0,0,0
76.0,27th Avenue Landfill,3060 S. 27th Avenue,Phoenix,AZ,Maricopa,85009,33.42,-112.1168,0,0,0.0,0,0
79.0,Butterfield Station Landfill,40404 S. 99th Avenue,Mobile,AZ,Maricopa,85139,33.08,-112.2757,0,0,0.0,0,0
81.0,Cave Creek MSW Landfill,3955 E. Carefree Highway,Cave Creek,AZ,Maricopa,85331,33.79,-111.997,0,0,0.0,0,0
83.0,City of Chandler Landfill,3850 South McQueen Road,Chandler,AZ,Maricopa,85286,33.251,-111.8251,0,0,0.0,0,0
84.0,City of Glendale Municipal Landfill,11480 W Glendale Avenue,Glendale,AZ,Maricopa,85307,33.5364,-112.3065,0,0,0.0,0,0
97.0,Lone Cactus Landfill,21402 N. 7th Street,Phoenix,AZ,Maricopa,85024,33.682456,-112.065633,0,0,0.0,0,0
101.0,North Center Street Landfill,2799 North Center Street,Scottsdale,AZ,Maricopa,85256,33.465,-111.8295,0,0,0.0,0,0
102.0,Northwest Regional MSW Landfill,19401 W. Deer Valley Road,Surprise,AZ,Maricopa,85387,33.678000000000004,-112.481,0,0,0.0,0,0
104.0,Queen Creek MSW Landfill,20224 E Riggs Road,Queen Creek,AZ,Maricopa,85142,33.2195,-111.6469,0,0,0.0,0,0
106.0,Salt River Landfill,13602 N. Beeline Highway,Scottsdale,AZ,Maricopa,85256,33.508775,-111.778214,0,0,0.0,0,0
108.0,Skunk Creek Landfill,3165 W. Happy Valley Road,Phoenix,AZ,Maricopa,85027,33.71276,-112.12764,0,0,0.0,0,0
110.0,Southwest Regional Landfill,24427 S Highway 85,Buckeye,AZ,Maricopa,85326,33.34469,-112.62391,0,0,0.0,0,0
111.0,State Route 85 Landfill,28633 W. Patterson Road,Buckeye,AZ,Maricopa,85326,33.178917,-112.66485,0,0,0.0,0,0
113.0,Tri-Cities Landfill,11630 North Beeline Highway,Scottsdale,AZ,Maricopa,85256,33.476,-111.8295,0,0,0.0,0,0
77.0,Apache County Regional Landfill - Blue Hills,"Highway 191
3 mi NE of St. Johns",St. Johns,AZ,Apache,85936,34.529,-109.312,0,0,0.0,0,0
78.0,Apache Junction LF,4050 South Tomahawk Road,Apache Junction,AZ,Pinal,85219,33.37893,-111.52877,0,0,0.0,0,0
80.0,Cactus Landfill,22481 East Deep Well Ranch Road,Florence,AZ,Pinal,85132,32.7679,-111.3223,0,0,0.0,0,0
90.0,Durham Regional Landfill,"22316 S. Harmon Road
6 miles north and 3 miles east of the I-10 Red Rock Interchange (Exit 226)",Florence,AZ,Pinal,85132,32.68,-111.291,0,0,0.0,0,0
94.0,Ironwood Landfill,12720 East Highway 287,Florence,AZ,Pinal,85232,33.0077,-111.4316,0,0,0.0,0,0
82.0,Cinder Lake MSW LF,6770 E. Cinder Lake Landfill Road,Flagstaff,AZ,Coconino,86004,35.30699999999999,-111.517,0,0,0.0,0,0
85.0,Cochise County Western Regional Landfill,2595 N. Sagebrush Road,Huachuca City,AZ,Cochise,85616,31.718000000000004,-110.288,0,0,0.0,0,0
87.0,Copper Mountain Landfill,34853 East County 12th Street,Wellton,AZ,Yuma,85356,32.649,-114.05565,0,0,0.0,0,0
109.0,South Yuma County Landfill,19536 S. Avenue 1 E,Yuma,AZ,Yuma,85365,32.5689,-114.61613,0,0,0.0,0,0
91.0,Gray Wolf Regional Landfill,23355 East Highway 169,Dewey,AZ,Yavapai,86327,34.5167,-112.0483,0,0,0.0,0,0
92.0,Harrison Landfill,9245 East Irvington Road,Tucson,AZ,Pima,85730,32.1627,-110.7902,0,0,0.0,0,0
98.0,Los Reales Landfill,5300 E. Los Reales Road,Tucson,AZ,Pima,85756,32.1192,-110.88,0,0,0.0,0,0
99.0,Marana Regional Landfill,14508 West Avra Valley Road,Marana,AZ,Pima,85653,32.410302,-111.283295,0,0,0.0,0,0
112.0,Tangerine Road MSW Landfill,10220 W. Tangerine Road,Marana,AZ,Pima,85653,32.41944,-111.1833,0,0,0.0,0,0
114.0,Vincent Mullins Landfill,East Speedway Boulevard,Tucson,AZ,Pima,85715,32.23565,-110.8378,0,0,0.0,0,0
95.0,La Paz County Landfill,"26999 Highway 95
Mile Post 128",Parker,AZ,La Paz,85344,33.951822,-114.21653899999998,0,0,0.0,0,0
96.0,Lake Havasu Landfill,3251 East Chenoweth Drive,Lake Havasu City,AZ,Mohave,86404,34.5463,-114.339,0,0,0.0,0,0
100.0,Mohave Valley Landfill,3999 El Rodeo Road,Mohave Valley,AZ,Mohave,86426,35.0135,-114.567,0,0,0.0,0,0
103.0,Painted Desert Landfill,9001 N. Porter Avenue,Joseph City,AZ,Navajo,86032,34.998000000000005,-110.3347,0,0,0.0,0,0
105.0,Rio Rico MSW Landfill,1500 W. Frontage Road,Rio Rico,AZ,Santa Cruz,85648,31.5194,-111.0186,0,0,0.0,0,0
115.0,Acme LF,950 Waterbird Way,Martinez,CA,Contra Costa,94553,38.034,-122.09056,0,0,0.0,0,0
200.0,Contra Costa SLF,"James Donlon Boulevard
1/4mi E/O Somersville Road",Antioch,CA,Contra Costa,94509,37.9875,-121.84528,0,0,0.0,0,0
260.0,Keller Canyon LF,901 Bailey Road,Pittsburg,CA,Contra Costa,94565,38.00472,-121.93611,0,0,0.0,0,0
402.0,West Contra Costa SLF,1 Parr Boulevard,Richmond,CA,Contra Costa,94801,37.96778,-122.37639,0,0,0.0,0,0
117.0,All Purpose Landfill,5401 Lafayette Street,Santa Clara,CA,Santa Clara,95054,37.41639,-121.97056,0,0,0.0,0,0
239.0,Guadalupe Rubbish Disposal Facility,15999 Guadalupe Mines Road,San Jose,CA,Santa Clara,95120,37.21139,-121.90139,0,0,0.0,0,0
265.0,Kirby Canyon Recycling & Disposal Facility,910 Coyote Creek Golf Drive,Morgan Hill,CA,Santa Clara,95037,37.18507,-121.67109,0,0,0.0,0,0
304.0,"Newby Island SLF Phases I, II, & III",1601 Dixon Landing Road,Milpitas,CA,Santa Clara,95035,37.45897,-121.94108,0,0,0.0,0,0
318.0,Palo Alto LF,2830 Embarcadero Road,Palo Alto,CA,Santa Clara,94303,37.45,-122.105,0,0,0.0,0,0
336.0,Recology Pacheco Pass LF,3665 Pacheco Pass Highway,Gilroy,CA,Santa Clara,95020,36.99577,-121.4789,0,0,0.0,0,0
358.0,Shoreline LF at Mountain View,"1780 Ampitheatre Parkway
2600 Shoreline Boulevard",Mountain View,CA,Santa Clara,94043,37.4236,-122.0903,0,0,0.0,0,0
370.0,Sunnyvale LF,301 Carl Road,Sunnyvale,CA,Santa Clara,94089,37.4184,-122.00776,0,0,0.0,0,0
414.0,Zanker Road (Nine Par) SLF,705 Los Esteros Road,San Jose,CA,Santa Clara,95134,37.43325,-121.95713,0,0,0.0,0,0
118.0,Allied Imperial Landfill,104 East Robinson Road,Imperial,CA,Imperial,92251,32.858000000000004,-115.526,0,0,0.0,0,0
250.0,Hot Spa Cut & Fill Site,10466 Spa Road,Niland,CA,Imperial,92257,33.41528,-115.67611,0,0,0.0,0,0
305.0,Niland Cut & Fill Site,8450 Cuff Road,Niland,CA,Imperial,92257,33.27111,-115.49167,0,0,0.0,0,0
119.0,Altamont Landfill & Resource Recovery Facility,10840 Altamont Pass Road,Livermore,CA,Alameda,94551,37.75,-121.65667,0,0,0.0,0,0
208.0,Davis Street LF,2615 Davis Street,San Leandro,CA,Alameda,94577,37.7144,-122.1948,0,0,0.0,0,0
382.0,Tri-Cities Landfill,7010 Auto Mall Parkway,Fremont,CA,Alameda,94538,37.49227,-121.99229,0,0,0.0,0,0
395.0,Vasco Road SLF,4001 North Vasco Road,Livermore,CA,Alameda,94550,37.75333,-121.72333,0,0,0.0,0,0
122.0,American Avenue Landfill,18950 West American Avenue,Kerman,CA,Fresno,93630,36.66171,-120.1457,0,0,0.0,0,0
177.0,Chateau Fresno LF,8662 W. Muscat,Fresno,CA,Fresno,93706,36.6856,-119.9397,0,0,0.0,0,0
179.0,Chestnut Avenue SLF,12825 South Chestnut Avenue,Fresno,CA,Fresno,93725,36.5513,-119.7387,0,0,0.0,0,0
184.0,City of Clovis LF,15679 Auberry Road,Clovis,CA,Fresno,93619,36.94300000000001,-119.685,0,0,0.0,0,0
185.0,City of Fresno Landfill,1707 West Jensen Avenue,Fresno,CA,Fresno,93706,36.7067,-119.8311,0,0,0.0,0,0
197.0,Coalinga Disposal Site,30825 Lost Hills Road,Coalinga,CA,Fresno,93210,36.10972,-120.35918,0,0,0.0,0,0
313.0,Orange Avenue Disposal Inc.,3280 South Orange Avenue,Fresno,CA,Fresno,93725,36.68694,-119.76306,0,0,0.0,0,0
367.0,Southeast Regional Solid Waste Disposal Site,12716 Dinuba Avenue,Selma,CA,Fresno,93662,36.59049,-119.56238,0,0,0.0,0,0
123.0,American Canyon SLF,End of Eucalyptus Drive,American Canyon,CA,Napa,94503,38.18056,-122.27556,0,0,0.0,0,0
195.0,Clover Flat Landfill,4380 Silverado Trail,Calistoga,CA,Napa,94515,38.5848,-122.534,0,0,0.0,0,0
124.0,Anderson Landfill,18703 Cambridge Road,Anderson,CA,Shasta,96007,40.45,-122.283334,0,0,0.0,0,0
401.0,West Central LF,14095 Clear Creek Road,Igo,CA,Shasta,96047,40.48156,-122.53498,0,0,0.0,0,0
126.0,Antelope Valley Recycling and Disposal Facility,1200 W. City Ranch Road,Palmdale,CA,Los Angeles,93551,34.56768,-118.14994,0,0,0.0,0,0
134.0,"Azusa Land Reclamation Company, Inc.",1211 W. Gladstone Street,Azusa,CA,Los Angeles,91702,34.1159,-117.929,0,0,0.0,0,0
152.0,BKK Landfill-Phases I & II,2210 South Azusa Avenue,West Covina,CA,Los Angeles,91792,34.0353,-117.913,0,0,0.0,0,0
159.0,Bradley Landfill,9227 Tujunga Avenue,Sun Valley,CA,Los Angeles,91352,34.23753,-118.38042,0,0,0.0,0,0
164.0,Burbank LF Site No. 3,2500 N. Bel Aire Drive,Burbank,CA,Los Angeles,91504,34.21018,-118.31192,0,0,0.0,0,0
166.0,Calabasas SLF,5300 Lost Hills Road,Agoura Hills,CA,Los Angeles,91301,34.14862,-118.70953,0,0,0.0,0,0
183.0,Chiquita Canyon SLF,29201 Henry Mayo Drive,Castaic,CA,Los Angeles,91384,34.428059999999995,-118.64661,0,0,0.0,0,0
254.0,Industry Hills Sheraton Resort,#1 Industry Hills Parkway,Industry Hills,CA,Los Angeles,91744,34.021,-117.92778,0,0,0.0,0,0
269.0,Lancaster Landfill,600 East Avenue `F`,Lancaster,CA,Los Angeles,93535,34.7474,-118.1165,0,0,0.0,0,0
278.0,Lopez Canyon SLF,11950 Lopez Canyon Road,Sylmar,CA,Los Angeles,91342,34.29028,-118.39111,0,0,0.0,0,0
294.0,Mission Canyon Landfill,1801 & 2501 North Sepulveda Boulevard,Los Angeles,CA,Los Angeles,90049,34.1102,-118.4824,0,0,0.0,0,0
295.0,Mission Hills,12445 Mountaingate Drive,Los Angeles,CA,Los Angeles,90049,34.1073,-118.4876,0,0,0.0,0,0
312.0,"Operating Industries, Inc. LF (OII)","900 Potrero Grande Drive
End of Greenwood Avenue",Monterey Park,CA,Los Angeles,91754,34.031,-118.108,0,0,0.0,0,0
320.0,Palos Verdes Landfill,25680 Hawthorne Boulevard,Rolling Hills Estates,CA,Los Angeles,90274,33.79189,-118.35243,0,0,0.0,0,0
322.0,Penrose LF,8251 - 8301 Tujunga Avenue,Sun Valley,CA,Los Angeles,91352,34.2186,-118.3816,0,0,0.0,0,0
330.0,Puente Hills LF,2800 S. Workman Mill Road,Whittier,CA,Los Angeles,90601,34.02033,-118.00603999999998,0,0,0.0,0,0
354.0,Savage Canyon LF,13919 East Penn Street,Whittier,CA,Los Angeles,90602,33.9799,-118.0171,0,0,0.0,0,0
355.0,Scholl Canyon SLF,3001 Scholl Canyon Road,Glendale,CA,Los Angeles,91206,34.15188,-118.19673,0,0,0.0,0,0
357.0,Sheldon-Arleta LF,12455 Wicks Street,Sun Valley,CA,Los Angeles,91352,34.2263,-118.4044,0,0,0.0,0,0
368.0,Spadra LF,4125 W. Valley Boulevard,Walnut,CA,Los Angeles,91789,34.03864,-117.82379,0,0,0.0,0,0
371.0,Sunshine Canyon Landfill,14747 San Fernando Road,Sylmar,CA,Los Angeles,91342,34.32352,-118.50294,0,0,0.0,0,0
381.0,Toyon Canyon LF,5050 Mt Hollywood Drive,Los Angeles,CA,Los Angeles,90027,34.1444,-118.3012,0,0,0.0,0,0
128.0,Apple Valley Disposal Site,Yucca Loma Road,Apple Valley,CA,San Bernardino,92307,34.5,-117.11,0,0,0.0,0,0
136.0,Baker Refuse Disposal Site,72799 Soda Baker Road,Baker,CA,San Bernardino,92309,35.23300000000001,-116.061,0,0,0.0,0,0
140.0,Barstow Sanitary Landfill,32553 Barstow Road,Barstow,CA,San Bernardino,92311,34.833890000000004,-117.02,0,0,0.0,0,0
148.0,Big Bear Refuse Disposal Site,38550 Holcomb Valley Road,Big Bear City,CA,San Bernardino,92314,34.2994,-116.8736,0,0,0.0,0,0
168.0,California Street LF,2151 Nevada Street,Redlands,CA,San Bernardino,92373,34.08861,-117.221,0,0,0.0,0,0
199.0,Colton Sanitary Landfill,850 Tropica Rancho Road,Colton,CA,San Bernardino,92324,34.045559999999995,-117.33861,0,0,0.0,0,0
245.0,Hesperia Refuse Disposal Site,7 miles South on Hesperia Road,Hesperia,CA,San Bernardino,92345,34.346,-117.349,0,0,0.0,0,0
270.0,Landers Sanitary Landfill,"59200 Winters Road
1/2 mile E. of Avalon Avenue",Landers,CA,San Bernardino,92285,34.24048,-116.38152,0,0,0.0,0,0
275.0,Lenwood-Hinkley Refuse Disposal Site,37751 Lenwood Road,Lenwood,CA,San Bernardino,92311,34.9355,-117.1183,0,0,0.0,0,0
282.0,Lucerne Valley Disposal Site,Camp Rock Road,Lucerne Valley,CA,San Bernardino,92356,34.4307,-116.8542,0,0,0.0,0,0
292.0,Mid-Valley Sanitary LF,2390 N. Alder Avenue,Rialto,CA,San Bernardino,92377,34.14333,-117.43,0,0,0.0,0,0
293.0,Milliken SLF,2050 S. Milliken Avenue,Ontario,CA,San Bernardino,91761,34.0365,-117.5583,0,0,0.0,0,0
298.0,Morongo Disposal Site,1/2 mile East of Highway 62,Morongo Valley,CA,San Bernardino,92256,34.0557,-116.558,0,0,0.0,0,0
301.0,Needles Solid Waste Disposal Site,13930 Needles Landfill Road,Needles,CA,San Bernardino,92363,34.8526,-114.631,0,0,0.0,0,0
303.0,Newberry Springs Disposal Site,"Poniete Drive
3 miles South of Highway 66",Newberry Springs,CA,San Bernardino,92365,34.791,-116.66,0,0,0.0,0,0
323.0,Phelan Refuse Disposal Site,10130 Buckwheat Road,Phelan,CA,San Bernardino,92371,34.4343,-117.6075,0,0,0.0,0,0
350.0,San Timoteo Solid Waste Disposal Site,31 Refuse Road,Redlands,CA,San Bernardino,92373,34.0117,-117.2133,0,0,0.0,0,0
383.0,Trona-Argus Refuse Disposal Site,83000 1st Street,Trona,CA,San Bernardino,93562,35.7632,-117.399,0,0,0.0,0,0
386.0,Twentynine Palms Disposal Site,7501 Pinto Mountain Road,Twentynine Palms,CA,San Bernardino,92277,34.1192,-115.9652,0,0,0.0,0,0
392.0,Upland LF,"1460 N. Campus Avenue
BTW E. 14th and E. 15th",Upland,CA,San Bernardino,91786,34.11667,-117.64,0,0,0.0,0,0
396.0,Victorville Sanitary Landfill,18600 Stoddard Wells Road,Victorville,CA,San Bernardino,92392,34.59333,-117.27,0,0,0.0,0,0
409.0,Yermo Disposal Site,40950 Minneola Road,Yermo,CA,San Bernardino,92398,34.940020000000004,-116.766,0,0,0.0,0,0
413.0,Yucaipa Refuse Disposal Site,33600 Oak Glen Road,Yucaipa,CA,San Bernardino,92399,34.0465,-117.06,0,0,0.0,0,0
130.0,Arvin SLF,5500 North Wheeler Ridge Road,Arvin,CA,Kern,93203,35.1905,-118.9145,0,0,0.0,0,0
137.0,Bakersfield City Landfill,4200 Panorama Drive,Bakersfield,CA,Kern,93306,35.41418,-118.94949,0,0,0.0,0,0
138.0,Bakersfield Metropolitan SLF (BENA),"2951 Neumarkel Road
17 miles E of Bakersfield, off Hwy 58",Edison,CA,Kern,93220,35.34387,-118.75847,0,0,0.0,0,0
157.0,Boron SLF,11400 Boron Avenue,Boron,CA,Kern,93516,34.99028,-117.6475,0,0,0.0,0,0
181.0,China Grade SLF,"6500 Camino Grande Drive
E of Alfred Harrell Hwy & Fairfax Road",Bakersfield,CA,Kern,93306,35.42499,-118.92934,0,0,0.0,0,0
279.0,Lost Hills SLF,14251 Holloway Road,Lost Hills,CA,Kern,93249,35.6311,-119.75732,0,0,0.0,0,0
288.0,McFarland-Delano SLF,"Stradley Avenue
3 mi S. of Delano",Delano,CA,Kern,93215,35.741,-119.254,0,0,0.0,0,0
296.0,Mojave-Rosamond SLF,400 Silver Queen Road,Mojave,CA,Kern,93501,34.99336,-118.13881,0,0,0.0,0,0
340.0,Ridgecrest-Inyokern SLF,3301 Bowman Road,Ridgecrest,CA,Kern,93555,35.60254000000001,-117.73755,0,0,0.0,0,0
356.0,Shafter-Wasco SLF,17621 Scofield Road,Shafter,CA,Kern,93263,35.51042,-119.41085,0,0,0.0,0,0
373.0,Taft SLF,13351 Elk Hills Road,Taft,CA,Kern,93268,35.20377,-119.45314,0,0,0.0,0,0
377.0,Tehachapi SLF,12001 Tehachapi Boulevard,Tehachapi,CA,Kern,93561,35.12362,-118.34031,0,0,0.0,0,0
132.0,Austin Road Landfill,9999 South Austin Road,Manteca,CA,San Joaquin,95336,37.7795,-121.1767,0,0,0.0,0,0
202.0,Corral Hollow LF,31130 S. Corral Hollow Road,Tracy,CA,San Joaquin,95377,37.67,-121.45667,0,0,0.0,0,0
226.0,"Foothill Sanitary Landfill, Inc.",6484 North Waverly Road,Linden,CA,San Joaquin,95236,38.0371,-120.94489,0,0,0.0,0,0
229.0,Forward Landfill,9999 S. Austin Road,Manteca,CA,San Joaquin,95336,37.874624,-121.1833,0,0,0.0,0,0
242.0,Harney Lane SLF,1/4 Mi E Of Jack Tone Road,Lodi,CA,San Joaquin,95240,38.0994,-121.1364,0,0,0.0,0,0
307.0,North County SLF,17720 East Harney Lane,Lodi,CA,San Joaquin,95240,38.097,-121.10193999999998,0,0,0.0,0,0
133.0,Avenal Regional Landfill,"201 North Hydril Road
1200 Skyline Boulevard",Avenal,CA,Kings,93204,36.01195,-120.11535,0,0,0.0,0,0
207.0,CWMI - KHF (MSW Landfill B-19),35251 Old Skyline Road,Kettleman City,CA,Kings,93239,36.1003959,-120.02029640000002,0,0,0.0,0,0
240.0,Hanford SLF,"7803 Hanford-Armona Road
at SE corner of INT with Hwy 43",Hanford,CA,Kings,93230,36.30907,-119.59573,0,0,0.0,0,0
135.0,Badlands SLF,31125 Ironwood Avenue,Moreno Valley,CA,Riverside,92555,33.95349,-117.11758,0,0,0.0,0,0
154.0,Blythe Disposal Site,1000 Midland Road,Blythe,CA,Riverside,92225,33.70478,-114.62673,0,0,0.0,0,0
196.0,Coachella Valley Disposal Site,"Landfill Road N.
87-011 44th Avenue",Coachella,CA,Riverside,92236,33.725,-116.142,0,0,0.0,0,0
201.0,Corona Disposal Site,1300 Magnolia Avenue,Corona,CA,Riverside,92879,33.8674,-117.5395,0,0,0.0,0,0
213.0,Double Butte Disposal Site,31710 Grand Avenue,Winchester,CA,Riverside,92596,33.72,-117.10833,0,0,0.0,0,0
219.0,Edom Hill Disposal Site,"70-100 Edom Hill Road
1.3 miles East of Varner Road",Desert Hot Springs,CA,Riverside,92241,33.881409999999995,-116.44632,0,0,0.0,0,0
221.0,El Sobrante SLF,10910 Dawson Canyon Road,Corona,CA,Riverside,92883-5020,33.79923,-117.46786000000002,0,0,0.0,0,0
246.0,Highgrove SLF,1420 Pigeon Pass Road,Highgrove,CA,Riverside,92507,34.00667,-117.28667,0,0,0.0,0,0
268.0,Lamb Canyon Sanitary Landfill,16411 Lamb Canyon Road,Beaumont,CA,Riverside,92223,33.88389,-116.99722,0,0,0.0,0,0
289.0,Mead Valley Disposal Site,22376 Forrest Road,Perris,CA,Riverside,92570,33.7957,-117.2832,0,0,0.0,0,0
141.0,Bass Hill LF,"469-700 Johnstonville Dump Road
off Hwy 395",Johnstonville,CA,Lassen,96130,40.35281,-120.55508,0,0,0.0,0,0
244.0,Herlong Disposal Facility,County Road 328,Herlong,CA,Lassen,96113,40.13669,-120.17019,0,0,0.0,0,0
360.0,Sierra Army Depot,74 Currant Street,Herlong,CA,Lassen,96113,40.16278,-120.15889,0,0,0.0,0,0
143.0,Ben Lomond Solid Waste Disposal Site,9835 Newell Creek Road,Ben Lomond,CA,Santa Cruz,95005,37.09375,-122.07535,0,0,0.0,0,0
163.0,Buena Vista Drive SLF,"1231 Buena Vista Drive
150 Rountree Lane",Watsonville,CA,Santa Cruz,95076,36.91738,-121.81142,0,0,0.0,0,0
190.0,City of Santa Cruz SLF,605 Dimeo Lane,Santa Cruz,CA,Santa Cruz,95060,36.97602,-122.10608,0,0,0.0,0,0
192.0,City of Watsonville Landfill,730 San Andreas Road,Watsonville,CA,Santa Cruz,95076,36.914,-121.824,0,0,0.0,0,0
150.0,Billy Wright Landfill,17173 S. Billy Wright Road,Los Banos,CA,Merced,93635,37.03949,-120.97235,0,0,0.0,0,0
247.0,Highway 59 Landfill,"7040 N. Hwy 59
6 miles N. of Merced",Merced,CA,Merced,95348,37.39389,-120.49778,0,0,0.0,0,0
151.0,Bishop Sunland,110 Sunland Reservation Road,Bishop,CA,Inyo,93514,37.32961,-118.40007,0,0,0.0,0,0
156.0,Bonzi SLF,2650 West Hatch Road,Modesto,CA,Stanislaus,95358,37.60566,-121.03683999999998,0,0,0.0,0,0
225.0,Fink Road LF,4000 Fink Road,Crows Landing,CA,Stanislaus,95313,37.38816,-121.13633,0,0,0.0,0,0
234.0,Geer Road SLF,750 Geer Road,Modesto,CA,Stanislaus,95357,37.62609000000001,-120.85,0,0,0.0,0,0
158.0,Borrego Landfill,2449 Palm Canyon Road,Borrego Springs,CA,San Diego,92004,33.248000000000005,-116.293,0,0,0.0,0,0
271.0,Las Pulgas LF,"1 mi N of Camp Pulgas, off Basilone Road",Camp Pendleton (Mil Res),CA,San Diego,92055,33.36444,-117.41921,0,0,0.0,0,0
308.0,North Miramar SLF,5180 Convoy Street,San Diego,CA,San Diego,92111,32.856,-117.162,0,0,0.0,0,0
315.0,Otay LF,1700 Maxwell Road,Chula Vista,CA,San Diego,91911,32.604,-117.005,0,0,0.0,0,0
332.0,Ramona Avenue Landfill,20630 Pamo Road,Ramona,CA,San Diego,92065,33.085,-116.863,0,0,0.0,0,0
347.0,San Marcos LF,1595 San Elijo Road,San Marcos,CA,San Diego,92078,33.07833,-117.165,0,0,0.0,0,0
349.0,San Onofre LF,2.7 Mi E Basilone Gate,Camp Pendleton (Mil Res),CA,San Diego,92672,33.39667,-117.54028,0,0,0.0,0,0
364.0,South Chollas SLF,"6000 College Grove Drive
2781 Caminito Chollas",San Diego,CA,San Diego,92105,32.7352,-117.0669,0,0,0.0,0,0
366.0,South Miramar LF,5180 Convoy Street,San Diego,CA,San Diego,92111,32.842,-117.152,0,0,0.0,0,0
372.0,Sycamore SLF,8514 Mast Boulevard,Santee,CA,San Diego,92071,32.8496,-117.02667,0,0,0.0,0,0
404.0,West Miramar SLF,5180 Convoy Street,San Diego,CA,San Diego,92111,32.856,-117.162,0,0,0.0,0,0
180.0,Chicago Grade LF,2290 Homestead Road,Templeton,CA,San Luis Obispo,93465,35.52333,-120.63028,0,0,0.0,0,0
187.0,City of Paso Robles LF,9000 Highway 46 East,Paso Robles,CA,San Luis Obispo,93446,35.66300000000001,-120.532,0,0,0.0,0,0
198.0,Cold Canyon LF Solid Waste Disposal Site,2268 Carpenter Canyon Road,San Luis Obispo,CA,San Luis Obispo,93401,35.1873,-120.59579,0,0,0.0,0,0
186.0,City of Lompoc SLF,700 S. Avalon Road,Lompoc,CA,Santa Barbara,93436,34.65271,-120.44256,0,0,0.0,0,0
351.0,Santa Maria Regional Landfill,2065 E. Main Street,Santa Maria,CA,Santa Barbara,93454,34.9525,-120.3831,0,0,0.0,0,0
374.0,Tajiguas SLF,14470 Calle Real,Gaviota,CA,Santa Barbara,93117,34.47694,-120.12417,0,0,0.0,0,0
394.0,Vandenberg Air Force Base LF,SE of Washington and New Mexico Avenue,Vandenberg Air Force Base,CA,Santa Barbara,93437,34.7197,-120.52418,0,0,0.0,0,0
189.0,City of Sacramento Landfill,20 28th Street,Sacramento,CA,Sacramento,95816,38.58583,-121.46389,0,0,0.0,0,0
264.0,Kiefer LF,12701 Kiefer Boulevard & Grant Line Road,Sloughhouse,CA,Sacramento,95683,38.52099000000001,-121.1989,0,0,0.0,0,0
266.0,L & D Landfill Company,8635 Fruitridge Road,Sacramento,CA,Sacramento,95826,38.528,-121.378,0,0,0.0,0,0
191.0,City of Ukiah Solid Waste Disposal Site,3100 Vichy Springs Road,Ukiah,CA,Mendocino,95482,39.16944,-123.16417,0,0,0.0,0,0
203.0,Coyote Canyon SLF,20661 Newport Coast Drive,Newport Beach,CA,Orange,92657,33.6267,-117.8312,0,0,0.0,0,0
231.0,Frank R. Bowerman SLF,11002 Bee Canyon Access Road,Irvine,CA,Orange,92602,33.72053,-117.70947,0,0,0.0,0,0
311.0,Olinda Alpha SLF,1942 N. Valencia Avenue,Brea,CA,Orange,92823,33.933609999999994,-117.84361,0,0,0.0,0,0
329.0,Prima Deshecha SLF,32250 La Pata Avenue,San Juan Capistrano,CA,Orange,92675,33.486540000000005,-117.62491,0,0,0.0,0,0
353.0,Santiago Canyon SLF,3099 Santiago Canyon Road,Orange,CA,Orange,92862,33.77639,-117.74111,0,0,0.0,0,0
204.0,Crazy Horse Landfill,350 Crazy Horse Canyon Road,Salinas,CA,Monterey,93907,36.7946,-121.61511000000002,0,0,0.0,0,0
258.0,Johnson Canyon SLF,31400 Johnson Canyon Road,Gonzales,CA,Monterey,93926,36.53167,-121.40667,0,0,0.0,0,0
276.0,Lewis Road SLF,1010 Lewis Road,Pajaro,CA,Monterey,95076,36.88083,-121.69944,0,0,0.0,0,0
297.0,Monterey Peninsula SLF,14201 Del Monte Blvd,Marina,CA,Monterey,93933,36.71333,-121.76667,0,0,0.0,0,0
205.0,Crescent City SLF,"Hights Access Road
Off Old Mill Road",Crescent City,CA,Del Norte,95531,41.79083,-124.21861,0,0,0.0,0,0
206.0,Cummings Road Landfill,5775 Cummings Road,Eureka,CA,Humboldt,95503,40.76167,-124.08833,0,0,0.0,0,0
218.0,Eastlake SLF,16015 Davis Avenue,Clearlake,CA,Lake,95422,38.95333,-122.60083,0,0,0.0,0,0
224.0,Fairmead Solid Waste Disposal Site,21739 Road 19,Chowchilla,CA,Madera,93610,37.06468,-120.1991,0,0,0.0,0,0
243.0,Healdsburg Landfill,166 Alexander Valley Road,Healdsburg,CA,Sonoma,95448,38.6508,-122.8685,0,0,0.0,0,0
363.0,Sonoma County Central Disposal Site,500 Mecham Road,Petaluma,CA,Sonoma,94952,38.29694,-122.74222,0,0,0.0,0,0
248.0,Hillside Solid Waste Disposal Site,1 Sand Hill Road,Colma,CA,San Mateo,94014,37.683,-122.444,0,0,0.0,0,0
285.0,Marsh Road LF,"1600 Marsh Road
North End Of Marsh Road at Bayfront Expwy",Menlo Park,CA,San Mateo,94025,37.4929,-122.1759,0,0,0.0,0,0
316.0,Ox Mountain SLF,12310 San Mateo Road,Half Moon Bay,CA,San Mateo,94019,37.499,-122.412,0,0,0.0,0,0
257.0,John Smith Road Class III Landfill,2650 John Smith Road,Hollister,CA,San Benito,95023,36.825,-121.324,0,0,0.0,0,0
281.0,Loyalton LF,"Garbage Pit Road
1 Mi E Loyalton",Loyalton,CA,Sierra,96118,39.67,-120.22,0,0,0.0,0,0
287.0,McCourtney LF,14741 Wolf Mountain Road,Grass Valley,CA,Nevada,95949,39.1726,-121.1121,0,0,0.0,0,0
300.0,Neal Road Recycling and Waste Facility,1023 Neal Road,Paradise,CA,Butte,95969,39.67425,-121.72929,0,0,0.0,0,0
317.0,Oxnard Landfills,4105 West Gonzales Road,Oxnard,CA,Ventura,93036,34.22857,-119.22435,0,0,0.0,0,0
361.0,Simi Valley LF,2801 N. Madera Road,Simi Valley,CA,Ventura,93065,34.294540000000005,-118.79544,0,0,0.0,0,0
380.0,Toland Road SLF,3500 North Toland Road,Santa Paula,CA,Ventura,93060,34.4025,-118.99806,0,0,0.0,0,0
328.0,Potrero Hills SLF,3675 Potrero Hills Lane,Suisun City,CA,Solano,94585,38.22333,-121.97778,0,0,0.0,0,0
334.0,Recology Hay Road LF,6426 Hay Road,Vacaville,CA,Solano,95687,38.31497,-121.83164,0,0,0.0,0,0
335.0,Recology Ostrom Road LF,5900 Ostrom Road,Wheatland,CA,Yuba,95692,39.07171,-121.3925,0,0,0.0,0,0
337.0,Recology Yuba-Sutter Landfill,3001 North Levee Road,Marysville,CA,Yuba,95901,39.1671,-121.55708,0,0,0.0,0,0
339.0,Redwood SLF,8950 Redwood Highway,Novato,CA,Marin,94945,38.1661,-122.57922,0,0,0.0,0,0
342.0,Rock Creek LF,12021 Hunt Road,Milton,CA,Calaveras,95252,38.03535,-120.8418,0,0,0.0,0,0
375.0,Teapot Dome Landfill,21063 Avenue 128,Porterville,CA,Tulare,93257,36.02111,-119.10583,0,0,0.0,0,0
397.0,Visalia Landfill,"33466 Road 80
8614 Avenue 328",Visalia,CA,Tulare,93291,36.39222,-119.39194,0,0,0.0,0,0
408.0,Woodville Landfill,19800 Road 152,Tulare,CA,Tulare,93274,36.15056,-119.23139,0,0,0.0,0,0
378.0,Tehama County/Red Bluff Landfill,19995 Plymire Rd,Red Bluff,CA,Tehama,96080,40.196,-122.29742,0,0,0.0,0,0
390.0,Union Mine Disposal Site,5700 Union Mine Road,El Dorado,CA,El Dorado,95623,38.648,-120.8298,0,0,0.0,0,0
406.0,Western Regional SLF,3195 Athens Avenue,Lincoln,CA,Placer,95648,38.83583,-121.34472,0,0,0.0,0,0
410.0,Yolo County Central LF,44090 County Road 28H,Woodland,CA,Yolo,95776,38.59028,-121.69222,0,0,0.0,0,0
411.0,Yreka Solid Waste LF,2420 Oberlin Road,Yreka,CA,Siskiyou,96097,41.70031,-122.59772,0,0,0.0,0,0
415.0,Archuleta County Landfill,"9179 County Road 500
9000 Trujillo Road",Pagosa Springs,CO,Archuleta,81147,37.156395,-107.0525,0,0,0.0,0,0
416.0,Bondad Landfill,1500 E. CR 310-318,Durango,CO,La Plata,81301,37.054875,-107.863825,0,0,0.0,0,0
417.0,Boulder Landfill,1600 S. 66th Street,Boulder,CO,Boulder,80303,39.94,-105.1995,0,0,0.0,0,0
418.0,Broad Canyon Landfill,30120 HH31 Road,Naturita,CO,Montrose,81422,38.158012,-108.518126,0,0,0.0,0,0
439.0,Montrose County Landfill,67999 Landfill Road,Montrose,CO,Montrose,81401,38.52717,-107.818073,0,0,0.0,0,0
419.0,Broadacres Landfill Inc.,"4025 Doyle Road
Near Bush Road & Doyle Road INT",Pueblo,CO,Pueblo,81006,38.138888,-104.485279,0,0,0.0,0,0
447.0,Southside Solid Waste Disposal Site,5715 W State Highway 78,Pueblo,CO,Pueblo,81005,38.22127,-104.708434,0,0,0.0,0,0
420.0,Buffalo Ridge Landfill,11655 Weld County Road 59,Keenesburg,CO,Weld,80643,40.19,-104.53,0,0,0.0,0,0
421.0,Central Weld County SLF,6037 E. 77th Avenue,Greeley,CO,Weld,80634,40.350836,-104.803464,0,0,0.0,0,0
426.0,Denver Regional Landfill (North),1441 Weld County Road 6,Erie,CO,Weld,80516,40.0439,-105.00414,0,0,0.0,0,0
427.0,Denver Regional Landfill (South),1441 Weld County Road 6,Erie,CO,Weld,80516,40.02918,-105.02982,0,0,0.0,0,0
432.0,Front Range Landfill,1830 Weld County Road 5,Erie,CO,Weld,80516,40.020405,-105.012673,0,0,0.0,0,0
441.0,North Weld SLF,40000 Weld County Road 25,Ault,CO,Weld,80610,40.58217,-104.83177,0,0,0.0,0,0
422.0,Colorado Springs Landfill,1010 Blaney Road,Colorado Springs,CO,El Paso,80929,38.843,-104.58,0,0,0.0,0,0
431.0,Fountain Landfill,10000 Squirrel Creek Road,Fountain,CO,El Paso,80817,38.68181,-104.628676,0,0,0.0,0,0
437.0,Midway Landfill,8925 Rancho Colorado Boulevard,Fountain Valley,CO,El Paso,80817,38.5475,-104.657819,0,0,0.0,0,0
424.0,County Line LF,4200 E. County Line Road,Littleton,CO,Douglas,80126,39.5636,-104.9335,0,0,0.0,0,0
445.0,Sedalia Recycling Center & Depository,5970 Highway 85,Sedalia,CO,Douglas,80135,39.447543,-104.965458,0,0,0.0,0,0
425.0,Denver Arapahoe Disposal Site (DADS),3500 South Gun Club Road,Aurora,CO,Arapahoe,80018,39.66,-104.69,0,0,0.0,0,0
428.0,Eagle County Landfill,"815 Ute Creek Road
2-3 mi N of Wolcott",Wolcott,CO,Eagle,81655,39.725,-106.661,0,0,0.0,0,0
429.0,East Regional Landfill (ERL),8201 Schumaker Road,Bennett,CO,Adams,80102,39.842346,-104.489113,0,0,0.0,0,0
450.0,Tower Landfill Inc.,8480 Tower Road,Commerce City,CO,Adams,80022,39.85052,-104.77187,0,0,0.0,0,0
430.0,Foothills Landfill,8900 Highway 93,Golden,CO,Jefferson,80403,39.849,-105.226,0,0,0.0,0,0
434.0,Larimer County Landfill,5887 S. Taft Hill Road,Fort Collins,CO,Larimer,80526,40.50507800000001,-105.122846,0,0,0.0,0,0
436.0,Mesa County Landfill,3071 U.S. Highway 50,Grand Junction,CO,Mesa,81503,39.012,-108.492,0,0,0.0,0,0
438.0,Milner Landfill,20650 County Road 205,Milner,CO,Routt,80487,40.469085,-107.03937,0,0,0.0,0,0
440.0,Morgan County SWDLF,21448 CR-22,Fort Morgan,CO,Morgan,80701,40.3143,-103.7351,0,0,0.0,0,0
442.0,Phantom Landfill,"2500 Fremont County Road 67 (Phantom Canyon Road)
6 miles E of Canon City",Penrose,CO,Fremont,81240,38.468739,-105.116272,0,0,0.0,0,0
443.0,Pitkin County Solid Waste Center,32046 Hwy 82,Snowmass Village,CO,Pitkin,81611,39.285,-106.9175,0,0,0.0,0,0
446.0,South Canyon Landfill,1250 CR-134,Glenwood Springs,CO,Garfield,81601,39.551,-107.42,0,0,0.0,0,0
448.0,Summit County Landfill,639 Landfill Road,Dillon,CO,Summit,80435,39.608,-105.997,0,0,0.0,0,0
455.0,Canterbury LF,133 Packer Road,Canterbury,CT,Windham,6331,41.657,-71.9604,0,0,0.0,0,0
470.0,Putnam LF,River Road,Putnam,CT,Windham,6260,41.881,-71.91,0,0,0.0,0,0
457.0,East Windsor LF,Wapping Road,Broad Brook,CT,Hartford,6016,41.8689,-72.5645,0,0,0.0,0,0
461.0,Hartford LF,180 Leibert Road,Hartford,CT,Hartford,6120,41.7901,-72.6514,0,0,0.0,0,0
463.0,Manchester LF,"1 Landfill Way
311 Olcott Street",Manchester,CT,Hartford,6040,41.7684,-72.5604,0,0,0.0,0,0
476.0,Windsor-Bloomfield LF,500 Huckleberry Road,Windsor,CT,Hartford,6095,41.8936,-72.7093,0,0,0.0,0,0
459.0,Groton LF,Wells Street,Groton,CT,New London,6340,41.3703,-72.0793,0,0,0.0,0,0
466.0,Montville LF,Route 163 & Chesterfield Road,Montville,CT,New London,6353,41.463503,-72.15749699999998,0,0,0.0,0,0
465.0,Middletown Avenue Landfill,260 Middletown Avenue,New Haven,CT,New Haven,6513,41.328,-72.88600000000002,0,0,0.0,0,0
474.0,Waterbury-North End LF,Mark Lane,Waterbury,CT,New Haven,6704,41.5779,-73.0101,0,0,0.0,0,0
467.0,New Milford LF,182-2 Danbury Road,New Milford,CT,Litchfield,6776,41.55082,-73.41766,0,0,0.0,0,0
471.0,Shelton LF,866 River Road,Shelton,CT,Fairfield,6484,41.26079,-73.09600999999998,0,0,0.0,0,0
477.0,Cherry Island Landfill,1706 E. 12th Street,Wilmington,DE,New Castle,19809,39.7308,-75.52,0,0,0.0,0,0
479.0,Pigeon Point Landfill,1101 Lambson Lane,New Castle,DE,New Castle,19720,39.7054,-75.5326,0,0,0.0,0,0
478.0,Jones Crossroads Landfill,28560 Landfill Lane,Georgetown,DE,Sussex,19947,38.596,-75.439,0,0,0.0,0,0
480.0,Sandtown Landfill,1107 Willow Grove Road,Felton,DE,Kent,19943,39.0327,-75.7251,0,0,0.0,0,0
481.0,58th Street Landfill,8831 NW 58th Street,Miami,FL,Miami-Dade,33178,25.8325,-80.345833,0,0,0.0,0,0
517.0,Medley Landfill,9350 NW 89th Avenue,Medley,FL,Miami-Dade,33178,25.8586,-80.3508,0,0,0.0,0,0
522.0,North Dade Landfill,21500 NW 47th Avenue,Opa-Locka,FL,Miami-Dade,33055,25.9679,-80.2862,0,0,0.0,0,0
536.0,South Dade Dump,SW 97th Avenue & SW 248th Street,Goulds,FL,Miami-Dade,33032,25.5336,-80.3451,0,0,0.0,0,0
537.0,South Dade Solid Waste Disposal Facility,23707 SW 97th Avenue,Homestead,FL,Miami-Dade,33032,25.5445,-80.3477,0,0,0.0,0,0
482.0,A.C.M.S. Inc.,835 CR 529,Lake Panasoffkee,FL,Sumter,33585,28.743151,-82.09165300000002,0,0,0.0,0,0
483.0,Aucilla Area SW Facility Class I & 2,"1313 SW Greenville Hills Road
East side of US 221",Greenville,FL,Madison,32331,30.45833,-83.60833000000002,0,0,0.0,0,0
514.0,Madison City/County SLF,"CR-591
2 miles NE of Madison",Madison,FL,Madison,32340,30.5081,-83.3908,0,0,0.0,0,0
484.0,Baseline Landfill,5601 SE 66th Street,Ocala,FL,Marion,34480,29.123,-82.06,0,0,0.0,0,0
485.0,Bee Ridge LF,8350 Bee Ridge Road,Sarasota,FL,Sarasota,34241,27.2958,-82.39399999999998,0,0,0.0,0,0
492.0,Central County Solid Waste Disposal Complex,4000 Knights Trail Road,Nokomis,FL,Sarasota,34275,27.201577,-82.39064599999998,0,0,0.0,0,0
487.0,Brevard County Central Disposal Facility,2250 W. Adamson Road,Cocoa,FL,Brevard,32926,28.3971,-80.8296,0,0,0.0,0,0
488.0,Bridgeway Acres LF,3001-110th Avenue North,St. Petersburg,FL,Pinellas,33716,27.867647,-82.6757,0,0,0.0,0,0
550.0,Toytown SLF,10550 16th Street North,St. Petersburg,FL,Pinellas,33716,27.8722,-82.6583,0,0,0.0,0,0
489.0,Broward County Landfill,7101 SW 205th Avenue,Fort Lauderdale,FL,Broward,33332,26.03785,-80.42495,0,0,0.0,0,0
518.0,Monarch Hill Landfill,"2700 NW 48th Street
(2700 Wiles Road)",Pompano Beach,FL,Broward,33073,26.283,-80.161,0,0,0.0,0,0
490.0,Buckingham Landfill,Buckingham Road near INT with SR-82,Fort Meyers,FL,Lee,33905,26.63312,-81.75318,0,0,0.0,0,0
500.0,Gulf Coast RDF,11990 SR 82 East,Fort Myers,FL,Lee,33913,26.60303,-81.76843000000002,0,0,0.0,0,0
491.0,Cedar Trail Landfill (CTL),2500 State Road 60 West,Bartow,FL,Polk,33830,27.89808,-81.884525,0,0,0.0,0,0
521.0,North Central Landfill,"10 Environmental Loop South
7399 De Castro Road",Winter Haven,FL,Polk,33880,28.02389,-81.847245,0,0,0.0,0,0
493.0,Citrus County Central Landfill,230 W. Gulf to Lake Highway,Lecanto,FL,Citrus,34461,28.85198,-82.43651,0,0,0.0,0,0
494.0,Collier County Landfill,3750 White Lake Boulevard,Naples,FL,Collier,34117,26.1634,-81.6585,0,0,0.0,0,0
496.0,Croom SLF,"High Corner Road
Off SR-50",Brooksville,FL,Hernando,34602,28.5409,-82.2657,0,0,0.0,0,0
501.0,Hernando County Northwest Landfill,14450 Landfill Road,Brooksville,FL,Hernando,34614,28.66735,-82.486788,0,0,0.0,0,0
497.0,DeSoto City SLF,6000 Skipper Road,Sebring,FL,Highlands,33876,27.4148,-81.406,0,0,0.0,0,0
502.0,Highlands County Solid Waste Management Center,12700 Arbuckle Creek Road,Sebring,FL,Highlands,33870,27.5106,-81.3155,0,0,0.0,0,0
498.0,Dyer Boulevard LF,7301 Haverhill Road North,West Palm Beach,FL,Palm Beach,33407,26.7819,-80.13,0,0,0.0,0,0
509.0,Lantana Landfill,9191 Lantana Road,Lake Worth,FL,Palm Beach,33467,26.593020000000006,-80.19369,0,0,0.0,0,0
526.0,PBCSWA RRF Site #7,7501 N. Jog Road,West Palm Beach,FL,Palm Beach,33412,26.763,-80.137436,0,0,0.0,0,0
499.0,East Duval SLF,515 Girvin Road,Jacksonville,FL,Duval,32225,30.33635,-81.46265,0,0,0.0,0,0
507.0,Jacksonville North SLF,11405 Island Drive,Jacksonville,FL,Duval,32226,30.4418,-81.556,0,0,0.0,0,0
534.0,Sandler Road SLF,10500 Sandler Road,Jacksonville,FL,Duval,32222,30.233458,-81.828486,0,0,0.0,0,0
545.0,Sunbeam Road SLF,Sunbeam Road & Craven Road,Jacksonville,FL,Duval,32257,30.2059,-81.6001,0,0,0.0,0,0
551.0,Trail Ridge Landfill Inc.,5110 U.S. Highway 301 S,Baldwin,FL,Duval,32234,30.2246,-82.0447,0,0,0.0,0,0
503.0,Hillsborough Heights LF,6209 County Road 579,Seffner,FL,Hillsborough,33584,28.015,-82.29799999999999,0,0,0.0,0,0
539.0,Southeast Hillsborough County LF,15960 County Road 672,Lithia,FL,Hillsborough,33547,27.776390000000006,-82.187501,0,0,0.0,0,0
505.0,Indian River County LF Class I,1325 74th Avenue SW,Vero Beach,FL,Indian River,32968,27.578000000000007,-80.485,0,0,0.0,0,0
506.0,J.E.D. Solid Waste Management Facility,1501 Omni Way,St. Cloud,FL,Osceola,34773,28.064,-81.098,0,0,0.0,0,0
533.0,Saint Cloud City LF Class I,"2705 Peg Horn Way
near Int. of Budinger Avenue & 17th Street",Saint Cloud,FL,Osceola,34769,28.2335,-81.3079,0,0,0.0,0,0
540.0,Southport Road SLF Phase I & II,4400 Hunt Road,Kissimmee,FL,Osceola,34746,28.1551,-81.42272,0,0,0.0,0,0
508.0,Lake County Central Phase I Landfill,13130 Astatula Landfill Road,Tavares,FL,Lake,32778,28.75558,-81.735811,0,0,0.0,0,0
511.0,Lee/Hendry County Regional SW Disposal Facility,5500 Church Road,Felda,FL,Hendry,33930,26.559790000000003,-81.5204,0,0,0.0,0,0
512.0,Lena Road Class I Landfill,"3333 Lena Road
S. of SR-64 & Lena Road INT",Bradenton,FL,Manatee,34211,27.470055,-82.443497,0,0,0.0,0,0
513.0,Leon County Landfill,"7550 Apalachee Parkway
5 mi. E. of SR 261 & US 27 Int.",Tallahassee,FL,Leon,32311,30.42153,-84.14399999999998,0,0,0.0,0,0
515.0,Majette North SLF,"Old Majette Tower Road & John Pitts Road
2 miles east of US 231, S SR-390",Panama City,FL,Bay,32404,30.2383,-85.5144,0,0,0.0,0,0
543.0,Steelfield Road Landfill,11411 Landfill Road,Panama City Beach,FL,Bay,32437,30.36226,-85.917,0,0,0.0,0,0
516.0,Martin County Palm City II SLF,9101 SW Busch Street,Palm City,FL,Martin,34990,27.1842,-80.3776,0,0,0.0,0,0
519.0,New River Regional LF,24276 NE 157th Street,Raiford,FL,Union,32083,30.0932,-82.2052,0,0,0.0,0,0
523.0,Okeechobee LF,10800 NE 128th Avenue,Okeechobee,FL,Okeechobee,34972,27.341040000000003,-80.6966,0,0,0.0,0,0
524.0,Orange County SLF,12100 Young Pine Road,Orlando,FL,Orange,32829,28.481,-81.2083,0,0,0.0,0,0
529.0,Pine Ridge Recycling & Disposal,5400 Rex Drive,Winter Garden,FL,Orange,34787,28.487325,-81.651813,0,0,0.0,0,0
525.0,Osceola Landfill,1930 E. Osceola Road,Geneva,FL,Seminole,32732,28.79278,-81.0882,0,0,0.0,0,0
527.0,PCSW Resource Recovery Facility,14230 Hays Road,Spring Hill,FL,Pasco,34610,28.369724,-82.560119,0,0,0.0,0,0
528.0,Perdido LF,13009 Beulah Road,Cantonment,FL,Escambia,32533,30.57654,-87.3897,0,0,0.0,0,0
530.0,Putnam County Central SLF,140 County Landfill Road,Palatka,FL,Putnam,32177,29.7196,-81.6655,0,0,0.0,0,0
532.0,Rosemary Hill LF Expansion Class I,"3545 Rosemary Hill Road
West of CR-315",Green Cove Springs,FL,Clay,32043,30.0047,-81.7402,0,0,0.0,0,0
535.0,Santa Rosa Central LF,6337 Da Lisa Road,Milton,FL,Santa Rosa,32583,30.5785,-87.0664,0,0,0.0,0,0
541.0,Springhill Regional Landfill,4945 W State Hwy 273,Campbellton,FL,Jackson,32426,30.92104,-85.42854,0,0,0.0,0,0
542.0,St. Lucie County Baling and Recycling Facility,6120 Glades Cutoff Road,Fort Pierce,FL,St. Lucie,34981,27.390834,-80.395557,0,0,0.0,0,0
544.0,Stock Island LF,Junior College Road,Key West,FL,Monroe,33040,24.5805,-81.7482,0,0,0.0,0,0
546.0,SW Alachua SLF,State Road 24,Archer,FL,Alachua,32618,29.5125,-82.54799999999999,0,0,0.0,0,0
547.0,Taylor County Central LF,Landfill Road,Perry,FL,Taylor,32347,30.0268,-83.7011,0,0,0.0,0,0
548.0,Tillman Ridge SLF,"3005 Allen Nease Road
S on SR-214, W on Allen Nease Roadÿ",St. Augustine,FL,St. Johns,32033,29.8314,-81.4053,0,0,0.0,0,0
549.0,Tomoka Farms Road LF,1990 Tomoka Farms Road,Port Orange,FL,Volusia,32128,29.1285,-81.0806,0,0,0.0,0,0
552.0,West Nassau SLF,"46026 Landfill Road/440 N Kings Road
2 miles NW of Callahan off US 1ÿ",Callahan,FL,Nassau,32011,30.6046,-81.8204,0,0,0.0,0,0
553.0,Winfield Solid Waste Facility,1347 NW Oosterhoudt Lane,Lake City,FL,Columbia,32055,30.2563,-82.703986,0,0,0.0,0,0
554.0,Wright LF,Percy Lane & N Beal Extension,Fort Walton Beach,FL,Okaloosa,32547,30.4757,-86.6418,0,0,0.0,0,0
555.0,Zemel Road Landfill,29751 Zemel Road,Punta Gorda,FL,Charlotte,33955,26.794446,-81.960278,0,0,0.0,0,0
556.0,"Advanced Disposal Services Evergreen Landfill, Inc.",2995 Wetherington Lane,Valdosta,GA,Lowndes,31601,30.808000000000003,-83.3625,0,0,0.0,0,0
557.0,Athens-Clarke County Landfill,5700 Lexington Road,Winterville,GA,Clarke,30683,33.929,-83.2627,0,0,0.0,0,0
558.0,Atkinson County - SR 50 MSWL,64 Author Davis Drive,Willacoochee,GA,Atkinson,31650,31.319415000000006,-82.964286,0,0,0.0,0,0
559.0,Baker Place Road Landfill (Ph 1 & 2),468 Chamblin Road,Grovetown,GA,Columbia,30813,33.489158,-82.234624,0,0,0.0,0,0
560.0,Bartow County MSWLF,"40 Allatoona Dam Road
between Hwy 41 & S.R. 293",Cartersville,GA,Bartow,30120,34.1438,-84.7648,0,0,0.0,0,0
561.0,BJ Landfill,2901 Jones Mill Road,Norcross,GA,Gwinnett,30071,33.93045,-84.23786,0,0,0.0,0,0
563.0,Button-Gwinnett Landfill Phase III,70 Arnold Road,Lawrenceville,GA,Gwinnett,30045,33.9231,-84.0478,0,0,0.0,0,0
616.0,Richland Creek Road Landfill,5691 South Richland Creek Road,Buford,GA,Gwinnett,30518,34.126999999999995,-84.0353,0,0,0.0,0,0
562.0,Broadhurst Environmental Landfill,4800 Broadhurst Road West,Screven,GA,Wayne,31560,31.4708,-81.9411,0,0,0.0,0,0
564.0,Camden County SR 110 MSW Landfill,"5395 Hwy 110 (SR 110 & Russell Road)
12 miles SW of Woodbine",Silco,GA,Camden,31569,30.85909,-81.854516,0,0,0.0,0,0
565.0,Carroll County - Carrollton SR 166 MSW Landfill,439 Simonton Mill Road,Carrollton,GA,Carroll,30117,33.5529,-85.156,0,0,0.0,0,0
566.0,Cascade Road Landfill,4047 Cascade Road S.W.,Atlanta,GA,Fulton,30331,33.733000000000004,-84.51899999999998,0,0,0.0,0,0
569.0,Chambers-Bolton Road,"2236 Bolton Road, N.W.",Atlanta,GA,Fulton,30318,33.8195,-84.4655,0,0,0.0,0,0
589.0,Fulton County Merk Miles Road Landfill,3225 Merk Road,College Park,GA,Fulton,30349,33.668833,-84.570167,0,0,0.0,0,0
592.0,Gun Club Road landfill,1401 Gun Club Road N.W.,Atlanta,GA,Fulton,30318,33.795,-84.461,0,0,0.0,0,0
606.0,Morgan Falls,Morgan Falls Road,Dunwoody,GA,Fulton,30350,33.9691,-84.375,0,0,0.0,0,0
620.0,Southern States-Bolton Road,"2236 Bolton Road, N.W.",Atlanta,GA,Fulton,30318,33.8184,-84.4655,0,0,0.0,0,0
629.0,Watts Road LF,1144 Field Road NW,Atlanta,GA,Fulton,30318,33.7856,-84.4858,0,0,0.0,0,0
567.0,Catoosa County MSW LF,912 Shope Ridge Road,Ringgold,GA,Catoosa,30736,34.8849,-85.1725,0,0,0.0,0,0
568.0,Cedar Grove Landfill,172 Roger Brown Drive,Barnesville,GA,Lamar,30204,33.085973,-84.208563,0,0,0.0,0,0
571.0,"Chesser Island Road Landfill, Inc. MSWL",Highway 121 S. (SR 23) at Chesser Island Road,Folkston,GA,Charlton,31537,30.7079,-82.0811,0,0,0.0,0,0
572.0,"City of Forsyth-Old Brent Road, Phase I&II",Old Brent Road,Forsyth,GA,Monroe,31209,33.015,-83.955,0,0,0.0,0,0
573.0,City of LaGrange Landfill,2233 Greenville Road,LaGrange,GA,Troup,30241,33.0463,-84.9532,0,0,0.0,0,0
574.0,City of Thomasville MSWLF,"88 Landfill Road
off Sunset Drive",Thomasville,GA,Thomas,31757,30.805802000000003,-83.91265,0,0,0.0,0,0
575.0,City of Tifton / Omega / Eldorado Road LF,445 Mitchell Store Road,Tifton,GA,Tift,31794,31.357773,-83.53698100000003,0,0,0.0,0,0
576.0,Clayton County SR 3 Lovejoy Landfill,11678 Hastings Bridge Road,Lovejoy,GA,Clayton,30250,33.44,-84.307,0,0,0.0,0,0
577.0,Columbus Pine Grove MSWLF,7160 Sacerdote Lane,Columbus,GA,Muscogee,31907,32.4974,-84.865,0,0,0.0,0,0
578.0,Columbus-Schatulga Road SLF,"7160 Sacerdote Lane
Schatulga Road off SR 22",Columbus,GA,Muscogee,31907,32.5015,-84.865,0,0,0.0,0,0
587.0,Fort Benning LF,1st Division Road,Fort Benning,GA,Muscogee,31905,32.385,-84.865,0,0,0.0,0,0
580.0,Crisp County Landfill,3354 U.S. Highway 41 S,Cordele,GA,Crisp,31015,31.866967,-83.749031,0,0,0.0,0,0
581.0,Deans Bridge Road MSWLF,4330 Deans Bridge Road,Blythe,GA,Richmond,30805,33.35257,-82.14324,0,0,0.0,0,0
582.0,Decatur County Solid Waste Facility,104 Mine Loop Road,Attapulgus,GA,Decatur,39815,30.71,-84.405,0,0,0.0,0,0
598.0,Highway 309 Landfill,2773 Fowlstown Road,Bainbridge,GA,Decatur,39819,30.83715,-84.56792,0,0,0.0,0,0
583.0,Dougherty County Fleming/Gaissert Road LF,900 Gaissert Road,Albany,GA,Dougherty,31705,31.532784000000003,-84.02835300000002,0,0,0.0,0,0
585.0,Eagle Point Landfill LLC,8880 Old Federal Road,Ball Ground,GA,Forsyth,30107,34.325556,-84.240833,0,0,0.0,0,0
590.0,Gordon County Redbone Ridges LF,1224 Pleasant Hill Road Extension NE & Red Bone Ridge Road,Ranger,GA,Gordon,30734,34.510557,-84.765811,0,0,0.0,0,0
591.0,Grady Road Landfill,316 Grady Road,Rockmart,GA,Polk,30153,33.9968,-85.167,0,0,0.0,0,0
614.0,Polk County Landfill #1,"Highway 278
~1 mile from Grady Road LF",Cedartown,GA,Polk,30125,34.007,-85.165,0,0,0.0,0,0
593.0,Habersham County SR13 MSWL,4900 Dicks Hill Parkway,Mt. Airy,GA,Habersham,30563,34.555381,-83.45889,0,0,0.0,0,0
594.0,Hall County Allen Creek Landfill,2665 Allen Creek Road,Gainesville,GA,Hall,30507,34.2537,-83.77600000000002,0,0,0.0,0,0
595.0,Hall County Candler Road MSWLF,1700 Oakbrook Drive Candler Road,Gainesville,GA,Hall,30507,34.242574,-83.800764,0,0,0.0,0,0
597.0,Hickory Ridge Landfill,3330 Moreland Avenue,Conley,GA,DeKalb,30288,33.662,-84.336,0,0,0.0,0,0
600.0,Key Road Landfill,1500 Key Road S.E.,Atlanta,GA,DeKalb,30316,33.698725,-84.33991400000002,0,0,0.0,0,0
603.0,Live Oak LF,1189 Henrico Road,Conley,GA,DeKalb,30288,33.6706,-84.3428,0,0,0.0,0,0
619.0,Seminole Road MSW Landfill,4203 Clevemont Road,Ellenwood,GA,DeKalb,30294,33.6552,-84.2525,0,0,0.0,0,0
599.0,Jefferson County CR-138 MSWL,1619 Mennonite Church Road,Louisville,GA,Jefferson,30434,33.1018,-82.4164,0,0,0.0,0,0
601.0,Laurens County - Old Macon Road MSWL,1645 Old Hawkinsville Road,Dublin,GA,Laurens,31021,32.585913,-83.04910100000002,0,0,0.0,0,0
602.0,Liberty County LF,Limerick Road,Midway,GA,Liberty,31320,31.843000000000004,-81.396,0,0,0.0,0,0
604.0,Macon Bibb Walker Road MSWL,920 11th Street,Macon,GA,Bibb,31201,32.8,-83.611,0,0,0.0,0,0
623.0,Swift Creek Environmental Landfill,4200 Davis Road,Macon,GA,Bibb,31217,32.8235,-83.5176,0,0,0.0,0,0
605.0,Marble Top Road Landfill,N. Marble Top Road,Chickamauga,GA,Walker,30707,34.839431,-85.36346400000002,0,0,0.0,0,0
607.0,Murray County Landfill,6585 Highway 411 S,Chatsworth,GA,Murray,30705,34.68076,-84.73063,0,0,0.0,0,0
608.0,Newton County Landfill,205 Lower River Road,Covington,GA,Newton,30016,33.551581,-83.89550799999998,0,0,0.0,0,0
609.0,Oak Grove Landfill,"967 Carl Bethlehem Road
3 mi SW of Winder, off SR 324",Winder,GA,Barrow,30680,33.9659,-83.7728,0,0,0.0,0,0
610.0,Old Dixie Highway MSW Landfill,4189 Old Dixie Highway S.E.,Dalton,GA,Whitfield,30721,34.6516,-84.945,0,0,0.0,0,0
612.0,Pine Bluff Landfill,13809 East Cherokee Drive,Ball Ground,GA,Cherokee,30107,34.273,-84.387,0,0,0.0,0,0
613.0,Pine Ridge Landfill,105 Bailey Jester Road,Griffin,GA,Butts,30223,33.240017,-84.118684,0,0,0.0,0,0
615.0,R & B (Banks) Landfill,610 Bennett Road,Homer,GA,Banks,30547,34.35184,-83.42719,0,0,0.0,0,0
617.0,Roberts Road Landfill,180 Roberts Road,Fayetteville,GA,Fayette,30214,33.486,-84.44200000000002,0,0,0.0,0,0
618.0,Savannah-Dean Forest Road SL,1327 Dean Forest Road,Savannah,GA,Chatham,31405,32.078,-81.22,0,0,0.0,0,0
622.0,Superior Landfill & Recycling Center,3001 Little Neck Road,Savannah,GA,Chatham,31419,32.025,-81.28,0,0,0.0,0,0
621.0,SR247 MSW Landfill,2080 GA Hwy 247,Kathleen,GA,Houston,31047,32.399561,-83.55573000000003,0,0,0.0,0,0
625.0,Turkey Run Landfill,7144 Lone Oak Road,Hogansville,GA,Meriwether,30230,33.163696,-84.848925,0,0,0.0,0,0
628.0,Walker Mountain Landfill,433 Walker Mountain Road,Rome,GA,Floyd,30161,34.19,-85.214799,0,0,0.0,0,0
630.0,"WI Taylor County Disposal, LLC",33 Stewart Road,Mauk,GA,Taylor,31058,32.462263,-84.371526,0,0,0.0,0,0
632.0,"Wolf Creek Landfill, LLC","911 Landfill Road
off Hwy 80 (Jeffersonville Road)",Dry Branch,GA,Twiggs,31020,32.770534999999995,-83.437873,0,0,0.0,0,0
635.0,Central Maui Landfill,1 Pulehu Road,Puunene,HI,Maui,96784,20.86,-156.41899999999995,0,0,0.0,0,0
636.0,Hana Landfill,Waikaloa Street,Hana,HI,Maui,96713,20.76778,-155.98859,0,0,0.0,0,0
638.0,Kalamaula Landfill,Maunaloa Highway,Naiwa,HI,Maui,96748,21.10096,-157.05001,0,0,0.0,0,0
643.0,Lanai Landfill,"Kaumalapau Highway (Hwy 440)
4 mi W of Lanai City",Lanai City,HI,Maui,96763,20.794,-156.967,0,0,0.0,0,0
644.0,Naiwa Landfill,Maunaloa Highway,Kaunakakai,HI,Maui,96748,21.118,-157.062,0,0,0.0,0,0
645.0,Olowalu Landfill,Honoapiilani Highway,Lahaina,HI,Maui,96761,20.83019,-156.62902,0,0,0.0,0,0
639.0,Kaneohe Marine Corps Air Station Landfill,MCBH Kaneohe Bay,Kaneohe Bay,HI,Honolulu,96863,21.448,-157.731,0,0,0.0,0,0
640.0,Kapaa,Kapaa Quarry Road,Kailua,HI,Honolulu,96734,21.4,-157.767,0,0,0.0,0,0
641.0,Kapaa and Kalaheo Sanitary Landfills,"Kapaa Quarry Road
913 Kalanianaole Highway",Kailua,HI,Honolulu,96734,21.401025,-157.77503000000004,0,0,0.0,0,0
646.0,Palailai Landfill,91-402 Farrington Highway,Kapolei,HI,Honolulu,96707,21.338,-158.088,0,0,0.0,0,0
648.0,Waimanalo Gulch Landfill & Ash Monofill,92-460 Farrington Highway,Kapolei,HI,Honolulu,96707,21.344,-158.11279,0,0,0.0,0,0
642.0,Kekaha Landfill/Phases I & II,6900-D Kaumualii Highway,Kekaha,HI,Kauai,96752,22.03452,-159.73029,0,0,0.0,0,0
647.0,South Hilo Sanitary Landfill (SHSL),"Leilani Street
1645 Ho'olaulima Road",Hilo,HI,Hawaii,96720,19.698,-155.04399999999995,0,0,0.0,0,0
649.0,West Hawaii Landfill/Puuanahulu,71-1111 Queen Kaahumanu Highway,Waikoloa,HI,Hawaii,96738,19.889013,-155.88029699999996,0,0,0.0,0,0
651.0,Black Hawk County SLF (Area E),1509 East Washburn Road,Waterloo,IA,Black Hawk,50701,42.414,-92.32758,0,0,0.0,0,0
652.0,Boone County Landfill,1268 224th Lane,Boone,IA,Boone,50036,42.02985,-93.9194,0,0,0.0,0,0
653.0,Carroll County Sanitary Landfill,19111 Kittyhawk Avenue,Carroll,IA,Carroll,51401,42.07127,-94.90601,0,0,0.0,0,0
655.0,Cedar Rapids Linn County Solid Waste Landfill #1,2250 A Street SW,Cedar Rapids,IA,Linn,52404,41.96469,-91.65193,0,0,0.0,0,0
656.0,Cedar Rapids Linn County Solid Waste Landfill #2,1954 County Home Road,Marion,IA,Linn,52302,42.09371,-91.55547,0,0,0.0,0,0
657.0,Central Disposal Landfill,21265 - 430th Street,Lake Mills,IA,Winnebago,50450,43.382,-93.572,0,0,0.0,0,0
659.0,City of Muscatine LF,3700 U.S. Highway 61 N,Blue Grass,IA,Muscatine,52726,41.5173,-90.843,0,0,0.0,0,0
660.0,Clinton County SLF (East),4292 220th Street,Clinton,IA,Clinton,52732,41.85905,-90.25866,0,0,0.0,0,0
661.0,Des Moines County Regional Sanitary Landfill,13758 Washington Road,West Burlington,IA,Des Moines,52655,40.849,-91.196,0,0,0.0,0,0
662.0,Dickinson Landfill Inc.,2575 190th Street,Spirit Lake,IA,Dickinson,51360,43.37178,-95.07733,0,0,0.0,0,0
663.0,Dubuque Metropolitan SLF,14501 Highway 20 West,Dubuque,IA,Dubuque,52003,42.45501,-90.77686,0,0,0.0,0,0
664.0,Fayette County Landfill,10275 Kornhill Road,Fayette,IA,Fayette,52142,42.82,-91.792,0,0,0.0,0,0
665.0,Floyd-Mitchell-Chickasaw Counties Landfill,3354 330th Street,Elma,IA,Mitchell,50628,43.236747,-92.560748,0,0,0.0,0,0
667.0,Great River Regional Solid Waste Authority Landfill,2092 303rd Avenue,Fort Madison,IA,Lee,52627,40.656,-91.3095,0,0,0.0,0,0
669.0,Iowa City SLF,3900 Hebl Avenue SW,Iowa City,IA,Johnson,52240,41.645,-91.624,0,0,0.0,0,0
671.0,Landfill of North Iowa,15942 Killdeer Avenue,Clear Lake,IA,Cerro Gordo,50428,43.12600000000001,-93.3003,0,0,0.0,0,0
672.0,Loess Hills Regional SLF,59722 290th Street,Malvern,IA,Mills,51551,41.022,-95.639,0,0,0.0,0,0
674.0,Marshall County SLF,2313 Marshalltown Boulevard,Marshalltown,IA,Marshall,50158,42.036,-92.982,0,0,0.0,0,0
675.0,Metro Park East Landfill,"12181 University Avenue NE
12161 12th Avenue NE",Mitchellville,IA,Polk,50169,41.600722,-93.345265,0,0,0.0,0,0
677.0,Montgomery County Sanitary Landfill,1704 L Avenue,Red Oak,IA,Montgomery,51566,41.057814,-95.150908,0,0,0.0,0,0
678.0,Newton SLF,3202 Highway 14 S,Newton,IA,Jasper,50208,41.67100000000001,-93.0655,0,0,0.0,0,0
679.0,North Central Iowa Regional SWA Sanitary Landfill,"2240 Landfill Drive
2240 S. 22nd Street",Fort Dodge,IA,Webster,50501,42.47227,-94.169712,0,0,0.0,0,0
681.0,Northwest Iowa Area SWA Landfill,4540 360th Street,Sheldon,IA,Sioux,51201,43.1299,-95.894119,0,0,0.0,0,0
683.0,Ottumwa-Wapello County SLF,13277 165th Avenue,Ottumwa,IA,Wapello,52501,41.08,-92.473,0,0,0.0,0,0
684.0,Page County Sanitary Landfill,2032 N Avenue,Clarinda,IA,Page,51632,40.750904,-95.110657,0,0,0.0,0,0
688.0,Scott Area SLF,11555 110th Avenue County Road Y-48,Davenport,IA,Scott,52804,41.47444,-90.68864,0,0,0.0,0,0
691.0,South Central Iowa Landfill,2496 Highway 92,Winterset,IA,Madison,50273,41.339,-93.955,0,0,0.0,0,0
692.0,South Central Iowa Sanitary Landfill,1736 Hwy T-17,Tracy,IA,Marion,50256,41.25995,-92.95676,0,0,0.0,0,0
697.0,Winneshiek County Sanitary Landfill,2000 140th Avenue,Decorah,IA,Winneshiek,52101,43.225,-91.67,0,0,0.0,0,0
698.0,Ada County Landfill,10300 Seamans Gulch Road,Boise,ID,Ada,83714,43.698,-116.283,0,0,0.0,0,0
700.0,Bear Lake County Landfill,"175 Willowbrook Lane
off Highway 89",Montpelier,ID,Bear Lake,83254,42.3213,-111.2479,0,0,0.0,0,0
701.0,Bennett Road Landfill,"Bennett Road, East of Mountain Home",Mountain Home,ID,Elmore,83647,43.078,-115.576,0,0,0.0,0,0
726.0,Simco Road Regional Landfill,16415 NW Waste Site Drive,Mayfield,ID,Elmore,83716,43.256283,-115.902837,0,0,0.0,0,0
703.0,Bingham County Landfill-Ridge Road,1100 E Mountain View Road,Blackfoot,ID,Bingham,83221,43.297,-112.075,0,0,0.0,0,0
705.0,Bonneville County Landfill,9449 E. Sunnyside,Idaho Falls,ID,Bonneville,83402,43.4288,-111.8572,0,0,0.0,0,0
706.0,Boundary County Landfill,"611 Hillcrest Road
Off County Road 29",Bonners Ferry,ID,Boundary,83805,48.718577,-116.317134,0,0,0.0,0,0
709.0,Circular Butte Sanitary LF,1571 N 800 E,Terreton,ID,Jefferson,83450,43.851000000000006,-112.539,0,0,0.0,0,0
723.0,Mud Lake Landfill,925 E. Salmon Highway,Terreton,ID,Jefferson,83450,43.854,-112.508,0,0,0.0,0,0
710.0,Clay Peak Landfill,2560 Highway 52,Payette,ID,Payette,83661,44.064474,-116.861139,0,0,0.0,0,0
711.0,Fighting Creek Farm Landfill,22089 U.S. 95,Coeur d' Alene,ID,Kootenai,83814,47.534,-116.934,0,0,0.0,0,0
712.0,Fort Hall Mine Landfill,1500 N. Fort Hall Mine Road,Pocatello,ID,Bannock,83204,42.782,-112.375,0,0,0.0,0,0
713.0,Franklin County Sanitary Landfill,2655 N 2200 E,Preston,ID,Franklin,83263,42.1433,-111.8192,0,0,0.0,0,0
717.0,Hub Butte Landfill,2900 N. 2800 E.,Twin Falls,ID,Twin Falls,83301,42.4182,-114.4991,0,0,0.0,0,0
718.0,Island Park Sanitary Landfill,3970 Kilgore-Yale Road,Island Park,ID,Fremont,83429,44.4505,-111.3705,0,0,0.0,0,0
727.0,St. Anthony Landfill,716 N 2400 E,St Anthony,ID,Fremont,83445,43.9808,-111.6779,0,0,0.0,0,0
719.0,Latah Sanitary Landfill,3299 Highway 8,Moscow,ID,Latah,83843,46.71,-116.902,0,0,0.0,0,0
720.0,Lemhi County Landfill 1,"Landfill Rd
off of Hot Springs Rd",Salmon,ID,Lemhi,83467,45.118893,-113.861523,0,0,0.0,0,0
721.0,Lemhi County Landfill 2,"Landfill Road
off of Hot Springs Road",Salmon,ID,Lemhi,83467,45.12600000000001,-113.833,0,0,0.0,0,0
722.0,Milner Butte Landfill,1050 West 400 South,Burley,ID,Cassia,83318,42.462,-114.005,0,0,0.0,0,0
725.0,Pickles Butte SLF,15500 Missouri Avenue,Nampa,ID,Canyon,83686,43.493,-116.704,0,0,0.0,0,0
728.0,Teton County Landfill,114 E 25 N,Driggs,ID,Teton,83422,43.726000000000006,-111.073,0,0,0.0,0,0
729.0,31st Street Landfill,11700 West 31st Street,Westchester,IL,Cook,60154,41.83894,-87.91497,0,0,0.0,0,0
744.0,CID Recycling and Disposal Facility,13707 S. Jeffery Avenue,Chicago,IL,Cook,60633,41.655,-87.57799999999997,0,0,0.0,0,0
747.0,Congress Development Company LF,4100 W. Frontage Road,Hillside,IL,Cook,60162,41.8721,-87.8885,0,0,0.0,0,0
752.0,Des Plaines Landfill,9800 West Central Road,Des Plaines,IL,Cook,60016,42.0689,-87.8653,0,0,0.0,0,0
770.0,Lake LF,1300 Willow Road,Northbrook,IL,Cook,60062,42.1055,-87.8125,0,0,0.0,0,0
771.0,Land & Lakes #1 and #2,1220 East 138th Street,Park Ridge,IL,Cook,60068,41.644648,-87.59333000000002,0,0,0.0,0,0
772.0,Land & Lakes #3,2000 E. 122nd Street,Chicago,IL,Cook,60633,41.6737,-87.5732,0,0,0.0,0,0
798.0,River Bend Prairie Landfill,"801 E. 138th Street
INT with Cottage Grove Avenue",Dolton,IL,Cook,60419,41.6446,-87.5979,0,0,0.0,0,0
805.0,South Barrington Landfill,55 E. Mundhank Road,South Barrington,IL,Cook,60010,42.0816,-88.13,0,0,0.0,0,0
730.0,ADS/McLean County LF #2,2105 W. Oakland Avenue,Bloomington,IL,McLean,61704,40.466463,-89.030787,0,0,0.0,0,0
731.0,Advanced Disposal Orchard Hills Landfill Inc.,8290 N. IL Highway 251,Davis Junction,IL,Ogle,61020,42.14322,-89.0769,0,0,0.0,0,0
750.0,Davis Junction Landfill,8900 Highway 251,Davis Junction,IL,Ogle,61020,42.147,-89.0825,0,0,0.0,0,0
799.0,Rochelle Municipal #2,6513 South Mulford Road,Rochelle,IL,Ogle,61068,41.926,-88.99700000000001,0,0,0.0,0,0
732.0,Advanced Disposal Valley View Landfill Inc.,1363 Bear Road,Decatur,IL,Macon,62522,39.8245,-89.0432,0,0,0.0,0,0
733.0,Advanced Disposal Zion Landfill,701 Green Bay Road,Zion,IL,Lake,60099,42.48483,-87.88497,0,0,0.0,0,0
749.0,Countryside LF,31725 N. Route 83,Grayslake,IL,Lake,60030,42.32424,-88.0289,0,0,0.0,0,0
759.0,H.O.D. Landfill,McMillen Road,Antioch,IL,Lake,60002,42.476000000000006,-88.08200000000002,0,0,0.0,0,0
734.0,Alton Municipal Landfill,4550 N. Alby Street,Godfrey,IL,Madison,62035,38.928,-90.179,0,0,0.0,0,0
743.0,Chain of Rocks RDF,3399 W. Chain of Rocks Road,Granite City,IL,Madison,62040,38.76235,-90.12949,0,0,0.0,0,0
800.0,Roxana LF,4600 Cahokia Creek Road,Edwardsville,IL,Madison,62025,38.8274,-90.0125,0,0,0.0,0,0
736.0,Beecher Landfill,1055 W. Goodenow Road,Beecher,IL,Will,60401,41.3915,-87.6388,0,0,0.0,0,0
742.0,CDT LF,2851 Mound Road,Rockdale,IL,Will,60436,41.500371,-88.144914,0,0,0.0,0,0
773.0,Land & Lakes/Willow Ranch Landfill,1371 N. Joliet Road,Romeoville,IL,Will,60446,41.670518,-88.062795,0,0,0.0,0,0
777.0,Laraway RDF,21101 W. Laraway Road,Elwood,IL,Will,60421,41.45101,-88.10807,0,0,0.0,0,0
793.0,Prairie View RDF,29755 S. Prairie View Drive,Wilmington,IL,Will,60481,41.34,-88.13,0,0,0.0,0,0
819.0,Wheatland Prairie RDF,25244 W. 111th Street,Plainfield,IL,Will,60585,41.684,-88.23899999999998,0,0,0.0,0,0
737.0,Belleville Sanitary LF,2381 Park Road,Belleville,IL,St. Clair,62220,38.48359,-90.011824,0,0,0.0,0,0
748.0,Cottonwood Hills LF,10400 Hillstown Road,Marissa,IL,St. Clair,62257,38.26,-89.78,0,0,0.0,0,0
782.0,Milam Recycling and Disposal Facility,601 Madison Road,East St. Louis,IL,St. Clair,62201,38.6547,-90.1302,0,0,0.0,0,0
783.0,Modern Landfill,"3521 Centreville Avenue
near IL Route 158 & Mine Haul Road",Belleville,IL,St. Clair,62226,38.48846,-90.02839,0,0,0.0,0,0
740.0,Bond County LF,825 Willard Street,Greenville,IL,Bond,62246,38.88497,-89.42086,0,0,0.0,0,0
741.0,Brickyard Disposal & Recycling Inc.,601 East Brickyard Road,Danville,IL,Vermilion,61832,40.09966,-87.6163,0,0,0.0,0,0
762.0,Illinois Landfill Inc.,16310 E. 4000 North Road,Hoopeston,IL,Vermilion,60942,40.445375,-87.63883,0,0,0.0,0,0
745.0,Clinton Landfill Inc.,9550 Heritage Road,Clinton,IL,De Witt,61727,40.114,-88.958,0,0,0.0,0,0
746.0,Coles County Landfill,6351 West State Street,Charleston,IL,Coles,61920,39.509,-88.26700000000002,0,0,0.0,0,0
751.0,DeKalb County LF,18370 Somonauk Road,DeKalb,IL,DeKalb,60115,41.898,-88.686,0,0,0.0,0,0
753.0,Envirofil of Illinois Inc.,13998 E. 1400th Street,Macomb,IL,McDonough,61455,40.484333,-90.638,0,0,0.0,0,0
754.0,Environtech LF,1800 Ashley Road,Morris,IL,Grundy,60450,41.37299,-88.4026,0,0,0.0,0,0
784.0,Morris Community LF,1501 Ashley Road,Morris,IL,Grundy,60450,41.3716,-88.4026,0,0,0.0,0,0
756.0,Five Oaks RDF,890 E. 1500 North Road,Taylorville,IL,Christian,62568,39.54693,-89.29486999999997,0,0,0.0,0,0
757.0,Freeport Municipal Landfill #4,2133 S. Walnut Road,Freeport,IL,Stephenson,61032,42.2657,-89.6212,0,0,0.0,0,0
758.0,Greene Valley RDF,9 S. 610 Greene Road,Naperville,IL,DuPage,60565,41.73045,-88.07444,0,0,0.0,0,0
781.0,Mallard Lake LF,26 W. 580 Schick Road,Hanover Park,IL,DuPage,60133,41.9525,-88.1442,0,0,0.0,0,0
761.0,Hickory Ridge Landfill Inc.,32246 375th Street,Baylis,IL,Pike,62314,39.698,-90.914,0,0,0.0,0,0
764.0,Indian Creek Landfill #2,24501 W. McMullen Road,Hopedale,IL,Tazewell,61747,40.42791500000001,-89.46491800000003,0,0,0.0,0,0
789.0,Pekin Metropolitan Landfill,11916 Towerline Road,Pekin,IL,Tazewell,61554,40.5664,-89.6282,0,0,0.0,0,0
811.0,Tazewell RDF,3550 E. Washington Street,East Peoria,IL,Tazewell,61611,40.68181,-89.51613,0,0,0.0,0,0
816.0,Washington LF Inc.,Guth Road & Foster Road,Washington,IL,Tazewell,61571,40.6901,-89.4163,0,0,0.0,0,0
765.0,Jerseyville Sanitation Landfill,1336 Crystal Lake Road,Jerseyville,IL,Jersey,62052,39.0869,-90.3189,0,0,0.0,0,0
766.0,K & H Disposal Landfill,U.S. Route 52,Donovan,IL,Iroquois,60931,40.8833,-87.6161,0,0,0.0,0,0
767.0,Kankakee County RDF,6259 S. Route 45 & 52,Chebanse,IL,Kankakee,60922,41.03100000000001,-87.8624,0,0,0.0,0,0
769.0,Knox County LF #3,996 Knox Road 2150 North,Oneida,IL,Knox,61467,41.015,-90.248,0,0,0.0,0,0
774.0,LandComp Landfill,2840 E. 13th Road,Ottawa,IL,LaSalle,61350,41.347899,-88.91350899999998,0,0,0.0,0,0
775.0,Landfill 33 Ltd.,1713 S. Willow Street,Effingham,IL,Effingham,62401,39.101,-88.52600000000002,0,0,0.0,0,0
778.0,Lee County Landfill,"1214 South Bataan Road
1279 North Bataan Road",Dixon,IL,Lee,61021,41.731,-89.395,0,0,0.0,0,0
779.0,Litchfield-Hillsboro LF,2782 Landfill Trail,Litchfield,IL,Montgomery,62056,39.17,-89.615,0,0,0.0,0,0
780.0,Livingston LF,14206 E. 2100 North Road,Pontiac,IL,Livingston,61764,40.93178,-88.65735,0,0,0.0,0,0
808.0,Streator Area LF No. 3,2111 Coalville Road,Streator,IL,Livingston,61364,41.0916,-88.8521,0,0,0.0,0,0
790.0,Peoria City/County Landfills #1 and #2,11501 W. Cottonwood Road,Brimfield,IL,Peoria,61517,40.742538,-89.798606,0,0,0.0,0,0
791.0,Peoria Disposal Company #1,4349 W. Southport Road,Peoria,IL,Peoria,61528,40.7655,-89.6983,0,0,0.0,0,0
792.0,"Perry Ridge Landfill, Inc.",6305 Sacred Heart Road,Du Quoin,IL,Perry,62832,38.035,-89.301,0,0,0.0,0,0
794.0,Quad Cities Landfill Phase IV,13606 Knoxville Road,Milan,IL,Rock Island,61264,41.379843,-90.510288,0,0,0.0,0,0
795.0,"Quad Cities LF Phases 1, 2, & 3",13606 Knoxville Road,Milan,IL,Rock Island,61264,41.3825,-90.5128,0,0,0.0,0,0
810.0,Taylor Ridge LF,8400 77th Street West,Taylor Ridge,IL,Rock Island,61284,41.44378,-90.67702,0,0,0.0,0,0
812.0,Upper Rock Island County LF,17201 20th Avenue North,East Moline,IL,Rock Island,61244,41.53629,-90.3766,0,0,0.0,0,0
796.0,Quincy Landfills #2 and #3,Old Broadway Road,Quincy,IL,Adams,62301,39.9295,-91.27622,0,0,0.0,0,0
801.0,Salem Municipal Landfill #2,900 E. Lake Street,Salem,IL,Marion,62881,38.6165,-88.9453,0,0,0.0,0,0
802.0,"Saline County Landfill, Inc.",5000 Whitesville Road,Harrisburg,IL,Saline,62946,37.671012,-88.462125,0,0,0.0,0,0
818.0,West End Disposal Facility,1710 McFarland Road,Thompsonville,IL,Saline,62890,37.875604,-88.702646,0,0,0.0,0,0
803.0,Sangamon Valley Landfill Inc.,2565 Sand Hill Road,Springfield,IL,Sangamon,62707,39.860188,-89.607711,0,0,0.0,0,0
804.0,Settler's Hill Recycling & Disposal Facility,1031 E. Fabyan Parkway,Batavia,IL,Kane,60510,41.86965,-88.28543,0,0,0.0,0,0
822.0,Woodland RDF,7 N. 500 Route 25,South Elgin,IL,Kane,60177,41.98077,-88.26899999999998,0,0,0.0,0,0
806.0,Southern Illinois Regional LF,1540 Landfill Road,De Soto,IL,Jackson,62924,37.8417,-89.258,0,0,0.0,0,0
807.0,Spoon Ridge Landfill,"10 Spoon Ridge Road
Route 1, Highway 97 North",Fairview,IL,Fulton,61432,40.6558,-90.1634,0,0,0.0,0,0
809.0,Sumner Landfill,SR-250 & E. 550th Avenue,Sumner,IL,Lawrence,62466,38.7167,-87.8063,0,0,0.0,0,0
813.0,Urbana Municipal #1,1210 E. University Avenue,Urbana,IL,Champaign,61801,40.109433,-88.193347,0,0,0.0,0,0
814.0,Urbana Municipal #2,1210 E. University Avenue,Urbana,IL,Champaign,61802,40.109433,-88.193347,0,0,0.0,0,0
817.0,Wayne County Landfill,1339 IL Highway 15,Fairfield,IL,Wayne,62837,38.38,-88.447,0,0,0.0,0,0
820.0,Whiteside County Landfill,18762 Lincoln Road,Morrison,IL,Whiteside,61270,41.79635,-89.88611999999998,0,0,0.0,0,0
821.0,Winnebago Landfill,8403 Lindenwood Road,Rockford,IL,Winnebago,61109,42.1597,-89.0554,0,0,0.0,0,0
823.0,Adams County North & South LFs,3775 North 200 East,Decatur,IN,Adams,46733,40.79969000000001,-84.898922,0,0,0.0,0,0
824.0,Advanced Disposal Blackfoot Landfill,3726 E. State Road 64,Winslow,IN,Pike,47598,38.33,-87.15,0,0,0.0,0,0
825.0,"Advanced Disposal Services Hoosier Landfill, Inc.",2710 E. 800 South,Claypool,IN,Kosciusko,46510,41.1165,-85.7869,0,0,0.0,0,0
827.0,Bartholomew County Landfill I,11110 E 25th Street,Columbus,IN,Bartholomew,47203,39.1295,-85.9125,0,0,0.0,0,0
828.0,Bartholomew County Landfill II,811 E CR 450 S,Columbus,IN,Bartholomew,47201,39.127,-85.9225,0,0,0.0,0,0
832.0,Caldwell LF,"11380 N 300 E
2920 E. US 52",Morristown,IN,Shelby,46161,39.686,-85.723,0,0,0.0,0,0
834.0,Center Point LF,2800 N CR 100 E,Center Point,IN,Clay,47840,39.4278,-87.0916,0,0,0.0,0,0
835.0,Clark-Floyd LF,14304 Highway 60,Borden,IN,Clark,47106,38.444,-85.84700000000002,0,0,0.0,0,0
836.0,Clinton County Landfill,2700 North State Road 39,Frankfort,IN,Clinton,46041,40.326,-86.559,0,0,0.0,0,0
839.0,County Line LF,7922 N. Old U.S. Highway 31,Argos,IN,Fulton,46501,41.16767,-86.23489000000002,0,0,0.0,0,0
841.0,Daviess County LF,1640 N 650E,Montgomery,IN,Daviess,47558,38.62371,-87.04515,0,0,0.0,0,0
843.0,Decatur Hills LF,2090 S CR 280 E,Greensburg,IN,Decatur,47240,39.30695,-85.42849,0,0,0.0,0,0
844.0,Deercroft RDF,10501 West 300 North,Michigan City,IN,LaPorte,46360,41.65138,-86.9031,0,0,0.0,0,0
909.0,Wheeler RDF,540 North 625 West,Hobart,IN,LaPorte,46342,41.515,-87.198,0,0,0.0,0,0
846.0,Earthmovers LF,26488 County Road 26,Elkhart,IN,Elkhart,46517,41.62324,-85.97372,0,0,0.0,0,0
848.0,Elkhart County Landfill,59530 CR 7 S,Elkhart,IN,Elkhart,46517,41.6335,-85.9775,0,0,0.0,0,0
852.0,Gary Sanitary LF,1900 Burr Street,Gary,IN,Lake,46406,41.5837,-87.4089,0,0,0.0,0,0
872.0,Munster LF,9751 Calumet Avenue,Munster,IN,Lake,46321,41.532,-87.5068,0,0,0.0,0,0
858.0,Hayes Landfill,3450 S. Spiceland Road,New Castle,IN,Henry,47362,39.88778,-85.37626,0,0,0.0,0,0
859.0,Huntington City LF,515 S 300 W,Huntington,IN,Huntington,46750,40.82338,-85.5024,0,0,0.0,0,0
862.0,Jay County LF,5825 W 400 South,Portland,IN,Jay,47371,40.376,-85.09299999999998,0,0,0.0,0,0
863.0,Jennings County LF,5590 W County 175 Road N,North Vernon,IN,Jennings,47265,39.010429,-85.697,0,0,0.0,0,0
864.0,LaGrange County LF,532 E 300 S,LaGrange,IN,LaGrange,46761,41.598,-85.415,0,0,0.0,0,0
865.0,Laubscher Meadows LF,2020 Laubscher Road,Evansville,IN,Vanderburgh,47720,38.0411,-87.6485,0,0,0.0,0,0
867.0,Liberty Landfill,"8635 E. State Road 16
~2 miles east of Buffalo",Monticello,IN,White,47960,40.886,-86.7,0,0,0.0,0,0
870.0,Medora SLF,546 County Road 870 West,Medora,IN,Jackson,47260,38.8671,-86.1997,0,0,0.0,0,0
901.0,Uniontown Landfill,3512 S US 31,Crothersville,IN,Jackson,47229,38.8317,-85.839,0,0,0.0,0,0
871.0,Monroe County LF,7740 N. Fish Road,Bloomington,IN,Monroe,47408,39.27621,-86.47277,0,0,0.0,0,0
873.0,National Serv-All LF,6231 MacBeth Road,Fort Wayne,IN,Allen,46809,41.03109,-85.21634,0,0,0.0,0,0
902.0,United Refuse LF,5000 Smith Road,Fort Wayne,IN,Allen,46804,41.0387,-85.2112,0,0,0.0,0,0
875.0,New Paris Pike LF,5242 New Paris Pike,Richmond,IN,Wayne,47374,39.8512,-84.8315,0,0,0.0,0,0
877.0,Newton County Landfill,2266 E. 500 South Road,Brook,IN,Newton,47922,40.9263,-87.3487,0,0,0.0,0,0
882.0,Oak Ridge RDF,2905 South 150 East,Logansport,IN,Cass,46947,40.71977,-86.3462,0,0,0.0,0,0
885.0,Prairie View RDF,15055 Shively Road,Bremen,IN,St. Joseph,46506,41.5005,-86.1725,0,0,0.0,0,0
886.0,Randolph Farms LF,7256 W CR 600 S,Modoc,IN,Randolph,47358,40.07745,-85.11041999999998,0,0,0.0,0,0
890.0,South Side Landfill Inc.,2561 Kentucky Avenue,Indianapolis,IN,Marion,46221,39.72794,-86.20846999999998,0,0,0.0,0,0
893.0,Spencer County,SR 70 & SR 245,Grandview,IN,Spencer,47615,38.0009,-86.90299999999998,0,0,0.0,0,0
895.0,Sullivan County LF,N County Road 375 E,Cass Township,IN,Sullivan,47882,39.085783,-87.336315,0,0,0.0,0,0
896.0,Sycamore Ridge Landfill & Victory Landfill,"5621 East Cottom Drive
12247 South Mill Street, Terre Haute",Pimento,IN,Vigo,47866,39.3055,-87.3315,0,0,0.0,0,0
899.0,Tipton County LF,229 W 300 S,Tipton,IN,Tipton,46072,40.2616,-86.016243,0,0,0.0,0,0
900.0,Twin Bridges RDF,124 Twin Bridges Road,Danville,IN,Hendricks,46122,39.75,-86.5,0,0,0.0,0,0
904.0,Wabash Valley LF,316 Spring Valley Road,Wabash,IN,Wabash,46992,40.822,-85.8,0,0,0.0,0,0
907.0,Washington County LF,2682 N Highland Road,Salem,IN,Washington,47167,38.6405,-86.1233,0,0,0.0,0,0
908.0,West Clinton LF,13150 South Kanizer Drive,Clinton,IN,Vermillion,47842,39.6938,-87.4139,0,0,0.0,0,0
911.0,Worthington LF,8226 N 500 W,Worthington,IN,Greene,47471,39.132,-87.038,0,0,0.0,0,0
912.0,Allen County LF,1170 2800th Street,La Harpe,KS,Allen,66751,37.90316,-95.2808,0,0,0.0,0,0
914.0,Barton County SLF,350 NE 30 Road,Great Bend,KS,Barton,67530,38.41,-98.708,0,0,0.0,0,0
915.0,Brooks Landfill,4100 N West Street,Wichita,KS,Sedgwick,67205,37.76181,-97.386561,0,0,0.0,0,0
916.0,Butler County Landfill,2963 SW 40th,El Dorado,KS,Butler,67042,37.76591,-96.89779,0,0,0.0,0,0
924.0,Coffey County LF,1498 12th Lane SE,Burlington,KS,Coffey,66839,38.2065,-95.708,0,0,0.0,0,0
928.0,Finney County Landfill / Western Plains Regional LF,1250 S. Raceway Road,Garden City,KS,Finney,67846,37.94,-100.767,0,0,0.0,0,0
929.0,Ford County Closed LF,10099 - 113 Road,Dodge City,KS,Ford,67801,37.767216,-99.974384,0,0,0.0,0,0
930.0,Ford County Open LF,10348 110 Road,Dodge City,KS,Ford,67801,37.8642,-100.0495,0,0,0.0,0,0
931.0,"Forest View Landfill, LLC",4800 Kaw Drive,Kansas City,KS,Wyandotte,66102,39.10407,-94.68839,0,0,0.0,0,0
935.0,Hamm SLF,16984 3rd Street,Lawrence,KS,Jefferson,66044,39.0465,-95.2626,0,0,0.0,0,0
936.0,Harvey County LF,3205 SW 24th Street,Newton,KS,Harvey,67114,38.015321,-97.388199,0,0,0.0,0,0
939.0,Johnson County LF,"17955 Holiday Drive
18181 W. 53rd",Shawnee,KS,Johnson,66217,39.04226,-94.79455,0,0,0.0,0,0
941.0,Kiowa County Landfill,10263 31st Avenue,Greensburg,KS,Kiowa,67054,37.533855,-99.294238,0,0,0.0,0,0
942.0,Kiowa County LF,"Hwy 183
3.5 mi N of Town",Greensburg,KS,Kiowa,67054,37.640368,-99.324255,0,0,0.0,0,0
944.0,Marion County LF,2.5 mi S & 3 mi W of Marion,Marion,KS,Marion,66861,38.335,-97.03,0,0,0.0,0,0
945.0,McPherson County Landfill,1472 Pueblo Road,McPherson,KS,McPherson,67460,38.4784,-97.6536,0,0,0.0,0,0
946.0,Mitchell County LF,1993 280 Road,Beloit,KS,Mitchell,67420,39.493,-98.156,0,0,0.0,0,0
949.0,Oak Grove Landfill,1150 E 700th Avenue,Arcadia,KS,Crawford,66711,37.62973,-94.64125,0,0,0.0,0,0
951.0,Phillips County LF,1799 Center Road,Phillipsburg,KS,Phillips,67661,39.747,-99.3385,0,0,0.0,0,0
952.0,Plumb Thicket Landfill,440 NE 150th Road,Harper,KS,Harper,67058,37.37300000000001,-97.961,0,0,0.0,0,0
953.0,Pratt County LF,20261 SE 10th Avenue,Pratt,KS,Pratt,67124,37.612,-98.7325,0,0,0.0,0,0
956.0,Reno County MSWLF,703 South Mohawk Road,Hutchinson,KS,Reno,67501,38.04,-98.0,0,0,0.0,0,0
957.0,Resource Recovery LF,4237 CR 5300,Cherryvale,KS,Montgomery,67335,37.212,-95.58,0,0,0.0,0,0
958.0,Rolling Meadows LF,7352 NW Highway 75,Topeka,KS,Shawnee,66618,39.17906,-95.72004,0,0,0.0,0,0
959.0,Rooks County LF,1710 S Road,Plainville,KS,Rooks,67663,39.307,-99.305,0,0,0.0,0,0
961.0,Russell County LF,18536 Land Road,Russell,KS,Russell,67665,38.957525,-98.848158,0,0,0.0,0,0
962.0,Salina MSWLF,4292 South Burma Road,Salina,KS,Saline,67401,38.7581,-97.6868,0,0,0.0,0,0
963.0,Seward County Landfill,1703 E. 8th Street,Liberal,KS,Seward,67901,37.04836,-100.90394,0,0,0.0,0,0
969.0,Trego County LF,24064 M Road,Wakeeney,KS,Trego,67672,38.958,-99.898,0,0,0.0,0,0
971.0,Wheatland LF,213 N.E. Belleview Road,Columbus,KS,Cherokee,66725,37.23689,-94.82838,0,0,0.0,0,0
972.0,Wichita County LF,13500 Road R,Leoti,KS,Wichita,67861,38.45251,-101.34195,0,0,0.0,0,0
973.0,Advanced Disposal Morehead Landfill Inc.,300 Old Phelps Road,Morehead,KY,Rowan,40351,38.189024,-83.54298299999998,0,0,0.0,0,0
974.0,Bavarian Trucking Company LF,12764 McCoys Fork Road,Walton,KY,Boone,41094,38.8631,-84.656,0,0,0.0,0,0
975.0,Benson Valley LF,2157 Highway 151,Frankfort,KY,Franklin,40601,38.13136,-84.9807,0,0,0.0,0,0
976.0,Big Run Landfill,1837 River Cities Drive,Ashland,KY,Boyd,41102,38.3718,-82.74700000000001,0,0,0.0,0,0
983.0,"Cooksey Brothers Disposal Company, Inc. LF",401 North Big Run Road,Ashland,KY,Boyd,41102,38.3676,-82.7129,0,0,0.0,0,0
977.0,Blue Ridge RDF,2700 Winchester Road,Irvine,KY,Estill,40336,37.7269,-83.9855,0,0,0.0,0,0
978.0,Central Kentucky Landfill,493 Double Culvert Road,Georgetown,KY,Scott,40324,38.346693,-84.545753,0,0,0.0,0,0
979.0,City of Bowling Green LF,5301 Glen Lily Road,Bowling Green,KY,Butler,42101,37.03,-86.5275,0,0,0.0,0,0
980.0,City of Hopkinsville LF,5665 Mt. Zoar Latham Road,Hopkinsville,KY,Christian,42240,36.9413,-87.5034,0,0,0.0,0,0
981.0,City of Owensboro LF,Hill Bridge Road,Owensboro,KY,Daviess,42303,37.68,-87.0755,0,0,0.0,0,0
1009.0,West Daviess County Landfill,7772 Hwy 815,Owensboro,KY,Daviess,42301,37.667,-87.28,0,0,0.0,0,0
984.0,Dozit Company Inc. Landfill,4075 State Road 360,Morganfield,KY,Union,42437,37.743,-87.9737,0,0,0.0,0,0
985.0,Epperson Waste Disposal,2360 Cynthiana Road,Williamstown,KY,Grant,41097,38.6138,-84.5331,0,0,0.0,0,0
987.0,Glasgow Regional Landfill,400 Glen Garry Road,Glasgow,KY,Barren,42141,36.9857,-85.956,0,0,0.0,0,0
988.0,Green Valley Landfill,100 Addington Drive,Ashland,KY,Greenup,41102,38.399,-82.811,0,0,0.0,0,0
989.0,Haley Pike Landfill,4172 Hedger Lane,Lexington,KY,Fayette,40516,38.058,-84.29700000000003,0,0,0.0,0,0
990.0,Hardin County Landfill,1620 Audubon Trace,Elizabethtown,KY,Hardin,42701,37.7361,-85.6994,0,0,0.0,0,0
991.0,Hopkins County Regional Landfill,300 Grays Branch Road,White Plains,KY,Hopkins,42464,37.1408,-87.3996,0,0,0.0,0,0
992.0,Laurel Ridge Landfill Inc.,3612 East Highway 552,Lily,KY,Laurel,40740,37.01111,-84.07897,0,0,0.0,0,0
994.0,Maysville-Mason County LF,7055 Clarkson-Sherman Road,Maysville,KY,Mason,41056,38.59011,-83.71531,0,0,0.0,0,0
996.0,Nelson County SWDF,1025 Airport Road,Bardstown,KY,Nelson,40004,37.8169,-85.5392,0,0,0.0,0,0
997.0,Ohio County Balefill Landfill,100 Landfill Lane,Beaver Dam,KY,Ohio,42320,37.408,-86.9325,0,0,0.0,0,0
998.0,Outer Loop RDF,2673 Outer Loop,Louisville,KY,Jefferson,40219,38.13577,-85.71611999999998,0,0,0.0,0,0
1000.0,Pike County Landfill,635 Ford Mountian Road,Varney,KY,Pike,41571,37.5816,-82.4414,0,0,0.0,0,0
1001.0,Pulaski Grading LF,320 Dixie Bend Road,Burnside,KY,Pulaski,42519,36.947,-84.54666,0,0,0.0,0,0
1002.0,Rumpke/Montgomery County LF,"30 Larison Road
8 mi. S. of Mt. Sterling off of KY Rt. 11",Jeffersonville,KY,Montgomery,40337,37.9506,-83.9529,0,0,0.0,0,0
1003.0,Rumpke/Pendleton County LF,"1374 Bryan Griffin Road
6 mi. N. of Falmouth, N. of Rt. 17 & US 27 INTXN",Butler,KY,Pendleton,41006,38.732,-84.41,0,0,0.0,0,0
1004.0,Southern Sanitation LF,478 Coopertown Road,Russellville,KY,Logan,42276,36.88662,-86.91781999999998,0,0,0.0,0,0
1006.0,"Tri-K Landfill, Inc.",1905 Kentucky Highway 3249,Stanford,KY,Lincoln,40484,37.47,-84.6599,0,0,0.0,0,0
1007.0,Valley View LF,9120 Sulphur Road,Sulphur,KY,Trimble,40070,38.505,-85.29,0,0,0.0,0,0
1008.0,Waste Path Sanitary Landfill LLC,1637 Shar-Cal Road,Calvert City,KY,Marshall,42029,37.0514,-88.3961,0,0,0.0,0,0
1010.0,West Kentucky Landfill,3426 U.S. 45 South,Mayfield,KY,Graves,42066,36.7149,-88.6748,0,0,0.0,0,0
1011.0,Williams LF,4876 Kings Church Road,Taylorsville,KY,Spencer,40071,38.1016,-85.4458,0,0,0.0,0,0
1012.0,Acadia Parish SLF,611 Petal Road,Egan,LA,Acadia,70531,30.2546,-92.5306,0,0,0.0,0,0
1013.0,Area 90 LF,5301 Highway 90,Avondale,LA,Jefferson,70094,29.908,-90.257,0,0,0.0,0,0
1019.0,Greater New Orleans LF,5700 Highway 90 West,Avondale,LA,Jefferson,70094,29.91797,-90.265,0,0,0.0,0,0
1023.0,Jefferson Parish SLF,5800 Highway 90 W,Avondale,LA,Jefferson,70094,29.926,-90.254,0,0,0.0,0,0
1032.0,River Birch Landfill,2000 South Kenner Avenue,Westwego,LA,Jefferson,70094,29.932,-90.258,0,0,0.0,0,0
1014.0,Choctaw Road Landfill,22249 Choctaw Road,Franklinton,LA,Washington,70438,30.877240000000004,-90.03477,0,0,0.0,0,0
1015.0,Colonial LF,5328 Highway 70,Sorrento,LA,Ascension,70778,30.149167,-90.872778,0,0,0.0,0,0
1016.0,Crescent Acres LF,6599 Florida Avenue,New Orleans,LA,Orleans,70126,29.9734,-89.9964,0,0,0.0,0,0
1030.0,Recovery I LF,17000 Chef Menteur Highway,New Orleans,LA,Orleans,70129,30.0523,-89.8799,0,0,0.0,0,0
1017.0,East Baton Rouge Parish LF,"100 Thomas Road
off US 61",Baton Rouge,LA,East Baton Rouge,70807,30.551896000000006,-91.197663,0,0,0.0,0,0
1018.0,EBR Parish North Landfill,16001 Samuels Road,Zachary,LA,East Baton Rouge,70791,30.599,-91.234,0,0,0.0,0,0
1020.0,"Harold J. ""Babe"" Landry LF",752 Thorguson Drive,Berwick,LA,St. Mary,70342,29.68,-91.242,0,0,0.0,0,0
1021.0,IESI Timberlane Landfill,1158 Landfill Road,Oakdale,LA,Allen,71463,30.8669,-92.607,0,0,0.0,0,0
1022.0,Jefferson Davis Parish Landfill,16547 Landfill Road,Welsh,LA,Jefferson Davis,70591,30.27083,-92.865,0,0,0.0,0,0
1024.0,La Salle/Grant Parish SLF,Highway 127 N,Jena,LA,La Salle,71342,31.795,-92.1912,0,0,0.0,0,0
1027.0,Magnolia Landfill,"1000 Russell Sage Road
0.25 miles south of I-20, exit 124",Monroe,LA,Ouachita,71202,32.478,-91.998,0,0,0.0,0,0
1045.0,White Oaks Landfill,588 Meadowlark Drive,Monroe,LA,Ouachita,71203,32.496970000000005,-91.98176,0,0,0.0,0,0
1028.0,Mundy Landfill,2712 U.S. 84,Mansfield,LA,De Soto,71052,32.06,-93.592,0,0,0.0,0,0
1029.0,N. Dugas LF,Dugas Road North,Lafayette,LA,Lafayette,70507,30.2833,-92.0695,0,0,0.0,0,0
1031.0,"Reliable Landfill, LLC","9533 Moore Lane
U.S. Highway 190 W.",Torbert,LA,Pointe Coupee,70762,30.55,-91.47,0,0,0.0,0,0
1033.0,Sabine Parish SLF,955 Sabine Landfill Road,Many,LA,Sabine,71443,31.6155,-93.555,0,0,0.0,0,0
1035.0,St. Landry Parish LF,417 Solid Waste Road,Washington,LA,St. Landry,70589,30.68627,-92.06458,0,0,0.0,0,0
1037.0,Tangipahoa Parish Regional Solid Waste Facility,57510 Hano Road,Independence,LA,Tangipahoa,70443,30.6862,-90.5653,0,0,0.0,0,0
1038.0,Tensas Parish LF,Parish Road 307 (Walker Road),St. Joseph,LA,Tensas,71366,31.987,-91.271,0,0,0.0,0,0
1039.0,Terrebonne Parish LF,337 Ashland Landfill Road,Houma,LA,Terrebonne,70363,29.5182,-90.6701,0,0,0.0,0,0
1040.0,Union Parish SLF,"356 Landfill Road
3 mi. N of Farmerville on Hwy 15",Farmerville,LA,Union,71241,32.818000000000005,-92.386,0,0,0.0,0,0
1041.0,Venice Landfill,339 Coast Guard Road,Venice,LA,Plaquemines,70091,29.2553,-89.36399999999998,0,0,0.0,0,0
1042.0,Vermilion Parish Landfill,8500 Birch Road,Abbeville,LA,Vermilion,70510,30.03,-92.1364,0,0,0.0,0,0
1043.0,Webster Parish LF,493 Landfill Road,Minden,LA,Webster,71055,32.628,-93.394,0,0,0.0,0,0
1044.0,West Carroll SLF,"448 Landfill Road
S. of Hwy 582",Oak Grove,LA,West Carroll,71263,32.7635,-91.3464,0,0,0.0,0,0
1046.0,Woodland Hills LF,I-10 & Cities Services Highway,Sulphur,LA,Calcasieu,70663,30.222,-93.387,0,0,0.0,0,0
1047.0,Woodside SLF & Recycling Center,29340 Woodside Drive,Walker,LA,Livingston,70785,30.48846,-90.82688,0,0,0.0,0,0
1048.0,Woolworth Road Landfill,10580 Woolworth Road,Keithville,LA,Caddo,71047,32.380720000000004,-93.90013,0,0,0.0,0,0
1049.0,Acushnet LF,561 Main Street,Acushnet,MA,Bristol,2743,41.707,-70.895,0,0,0.0,0,0
1051.0,"Attleboro Landfill, Incorporated",179 Peckham Street,Attleboro,MA,Bristol,2703,41.94,-71.235,0,0,0.0,0,0
1060.0,Crapo Hill LF,300 Samuel Barnet Boulevard,New Bedford,MA,Bristol,2745,41.725,-70.982,0,0,0.0,0,0
1063.0,Fall River Landfill,1080 Airport Road,Fall River,MA,Bristol,2720,41.75100000000001,-71.1068,0,0,0.0,0,0
1080.0,New Bedford LF,1103 Shawmut Avenue,New Bedford,MA,Bristol,2746,41.662589,-70.957314,0,0,0.0,0,0
1093.0,Taunton SLF,340 East Britannia Street,Taunton,MA,Bristol,2780,41.9223,-71.0836,0,0,0.0,0,0
1050.0,Amherst LF,740 Belchertown Road,Amherst,MA,Hampshire,1002,42.3712,-72.5108,0,0,0.0,0,0
1067.0,Granby SLF,11 New Ludlow Road,Granby,MA,Hampshire,1033,42.2214,-72.5459,0,0,0.0,0,0
1070.0,Hardwick Landfill,1270 Patrill Hollow Road,Hardwick,MA,Hampshire,1037,42.335,-72.2372,0,0,0.0,0,0
1081.0,Northampton Landfill,170 Glendale Road,Florence,MA,Hampshire,1062,42.29385,-72.71621999999998,0,0,0.0,0,0
1089.0,South Hadley Landfill LLC,12 Industrial Drive,South Hadley,MA,Hampshire,1075,42.22,-72.558,0,0,0.0,0,0
1052.0,Barnstable LF,45 Flint Street,Marstons Mills,MA,Barnstable,2648,41.6611,-70.3911,0,0,0.0,0,0
1054.0,Bourne LF,201 MacArthur Boulevard Route 28,Bourne,MA,Barnstable,2532,41.728,-70.5813,0,0,0.0,0,0
1082.0,Otis Air Force Base LF,Connery Road,Buzzards Bay,MA,Barnstable,2532,41.6647,-70.5479,0,0,0.0,0,0
1053.0,Bondi Island Landfill,Agawam Avenue,West Springfield,MA,Hampden,1089,42.1027,-72.5889,0,0,0.0,0,0
1058.0,Chicopee Landfill (Republic),845 Burnett Road,Chicopee,MA,Hampden,1020,42.1752,-72.5325,0,0,0.0,0,0
1059.0,Chicopee Landfill (WMI),161 New Lombard Road,Chicopee,MA,Hampden,1020,42.1659,-72.538,0,0,0.0,0,0
1083.0,Palmer LF,Emery Street,Palmer,MA,Hampden,1069,42.2025,-72.322,0,0,0.0,0,0
1056.0,Carver-Marion-Wareham Landfill,118 Federal Road,Carver,MA,Plymouth,2330,41.81283300000001,-70.7195,0,0,0.0,0,0
1061.0,Dartmouth LF,976 Russells Mills Road,Dartmouth,MA,Plymouth,2748,41.5798,-71.0002,0,0,0.0,0,0
1062.0,East Bridgewater LF,234 Thatcher Street,East Bridgewater,MA,Plymouth,2333,42.06342,-70.97856999999998,0,0,0.0,0,0
1069.0,Halifax LF,27 Laurel Street,Halifax,MA,Plymouth,2338,41.9918,-70.8992,0,0,0.0,0,0
1072.0,Hull Landfill,Logan Avenue,Hull,MA,Plymouth,2045,42.261836,-70.857348,0,0,0.0,0,0
1075.0,Marion LF,Benson Brook Road,Marion,MA,Plymouth,2738,41.7024,-70.781,0,0,0.0,0,0
1076.0,Marshfield LF,Clay Pit Road & Grove Street,Marshfield,MA,Plymouth,2050,42.112,-70.708,0,0,0.0,0,0
1078.0,Middleborough Landfill,207 Plympton Street,Middleborough,MA,Plymouth,2346,41.9257,-70.83147,0,0,0.0,0,0
1064.0,Fitchburg-Westminster LF,101 Fitchburg Road,Westminster,MA,Worcester,1473,42.53596,-71.85388,0,0,0.0,0,0
1068.0,Greenwood Street LF,30 Nippnapp Trail,Worcester,MA,Worcester,1607,42.218739,-71.789885,0,0,0.0,0,0
1073.0,Leicester LF,151 Mannville Street,Leicester,MA,Worcester,1524,42.26,-71.898,0,0,0.0,0,0
1077.0,Martone Landfill,99 Barre Depot Road,Barre,MA,Worcester,1005,42.38800000000001,-72.067,0,0,0.0,0,0
1091.0,Southbridge Recycling & Disposal Park,165 Barefoot Road,Southbridge,MA,Worcester,1550,42.10691,-72.0324,0,0,0.0,0,0
1092.0,Sturbridge Landfill,154 Breakneck Road,Sturbridge,MA,Worcester,1556,42.043815,-72.118011,0,0,0.0,0,0
1095.0,West Street Landfill,744 West Street,Gardner,MA,Worcester,1440,42.581,-72.045,0,0,0.0,0,0
1065.0,Gardner Street Landfill,"Gardner Street, West Roxbury",Boston,MA,Suffolk,2201,42.282,-71.182,0,0,0.0,0,0
1071.0,Haverhill Landfill,100 Recovery Way,Haverhill,MA,Essex,1835,42.76464,-71.12504,0,0,0.0,0,0
1074.0,Lowell LF,1290 Westford Street,Lowell,MA,Middlesex,1851,42.627,-71.3535,0,0,0.0,0,0
1087.0,RCI Hudson/Stow LF,Old Stow Road,Hudson,MA,Middlesex,1749,42.405,-71.542,0,0,0.0,0,0
1094.0,Wayland LF,484 Boston Post Road,Wayland,MA,Middlesex,1778,42.36326667,-71.38081667,0,0,0.0,0,0
1079.0,Nantucket LF,188 Madaket Road,Nantucket,MA,Nantucket,2554,41.279,-70.165,0,0,0.0,0,0
1084.0,Plainville LF,14 Belcher Street,Plainville,MA,Norfolk,2762,42.0392,-71.292,0,0,0.0,0,0
1085.0,Quarry Hills Soils LF,Ricciuti Drive,Quincy,MA,Norfolk,2169,42.2417,-71.04503000000003,0,0,0.0,0,0
1086.0,Randolph LF,Johnson Drive,Randolph,MA,Norfolk,2368,42.1806,-71.0784,0,0,0.0,0,0
1098.0,Alpha Ridge SLF,2350 Marriottsville Road,Marriottsville,MD,Howard,21104,39.305776,-76.898803,0,0,0.0,0,0
1125.0,New Cut Landfill,4361 New Cut Road,Ellicott City,MD,Howard,21043,39.246917,-76.796769,0,0,0.0,0,0
1102.0,Beulah Municipal Landfill,6815 East New Market Ellwood Road,Hurlock,MD,Dorchester,21643,38.6735,-75.8994,0,0,0.0,0,0
1104.0,Brown Station Road Sanitary Landfill,3500 Brown Station Road,Upper Marlboro,MD,Prince George's,20774,38.851,-76.789,0,0,0.0,0,0
1140.0,Sandy Hill SLF,9500 Old Laurel Bowie Road,Bowie,MD,Prince George's,20720,39.016,-76.791,0,0,0.0,0,0
1105.0,Cecil County Central Landfill,758 East Old Philadelphia Road,Elkton,MD,Cecil,21921,39.5969,-75.9136,0,0,0.0,0,0
1106.0,Central SLF,7091 Central Site Lane,Newark,MD,Worcester,21841,38.2159,-75.3186,0,0,0.0,0,0
1108.0,Charles County Landfill #2,12305 Billingsley Road East,Waldorf,MD,Charles,20602,38.572,-76.88600000000002,0,0,0.0,0,0
1133.0,Pisgah SLF,6645 Mason Springs Road,La Plata,MD,Charles,20646,38.5357,-77.1491,0,0,0.0,0,0
1109.0,Eastern Sanitary Landfill Solid Waste Management Facility (ESL),6257 Days Cove Road,White Marsh,MD,Baltimore,21162,39.3948,-76.3964,0,0,0.0,0,0
1128.0,Norris Farms Landfill,101 Norris Lane,Baltimore,MD,Baltimore,21222,39.288,-76.48,0,0,0.0,0,0
1112.0,Forty West SLF,12630 Earth Care Road,Hagerstown,MD,Washington,21740,39.6567,-77.82,0,0,0.0,0,0
1137.0,Resh Road II SLF,Resh Road,Hagerstown,MD,Washington,21740,39.68,-77.80199999999998,0,0,0.0,0,0
1113.0,Garrett County SWD and RF,3118 Oakland Sang Run Road,Oakland,MD,Garrett,21550,39.45075,-79.40754,0,0,0.0,0,0
1114.0,Glen Burnie Landfill,100 Dover Road,Glen Burnie,MD,Anne Arundel,21060,39.18718,-76.6,0,0,0.0,0,0
1123.0,Millersville SLF,389 Burns Crossing Road,Severn,MD,Anne Arundel,21144,39.0945,-76.6656,0,0,0.0,0,0
1142.0,Solley Road Landfill,7890 Solley Road,Glen Burnie,MD,Anne Arundel,21061,39.160313,-76.57504200000002,0,0,0.0,0,0
1143.0,Sudley Road SLF,5400 Nutwell Sudley Road,Deale,MD,Anne Arundel,20751,38.8179,-76.5785,0,0,0.0,0,0
1115.0,Gude LF,600 E. Gude Drive,Rockville,MD,Montgomery,20850,39.107,-77.14,0,0,0.0,0,0
1130.0,Oaks SLF,6001 Olney-Laytonsville Road,Laytonsville,MD,Montgomery,20882,39.18948,-77.12058,0,0,0.0,0,0
1117.0,Harford Waste Disposal Center,3241 Scarboro Road,Street,MD,Harford,21154,39.63963,-76.30235,0,0,0.0,0,0
1120.0,Hoods Mill Road SLF,7901 Kabik Court,Woodbine,MD,Carroll,21797,39.357,-77.024,0,0,0.0,0,0
1129.0,Northern SLF,1400 Baltimore Boulevard,Westminster,MD,Carroll,21157,39.554,-76.94,0,0,0.0,0,0
1121.0,Midshore I - Regional Solid Waste Facility,7341 Barkers Landing Road,Easton,MD,Talbot,21601,38.74714,-76.01961,0,0,0.0,0,0
1122.0,Midshore II - Regional Solid Waste Facility,12236 River Road,Ridgely,MD,Caroline,21660,38.948,-75.8593,0,0,0.0,0,0
1124.0,Mountainview SLF,13300 New George's Creek Road SW,Frostburg,MD,Allegany,21532,39.60212,-78.92121,0,0,0.0,0,0
1126.0,Newland Park SLF,6948 Brick Kiln Road,Salisbury,MD,Wicomico,21801,38.385,-75.6336,0,0,0.0,0,0
1132.0,Pennington Avenue LF,Pennington Avenue,Baltimore,MD,Baltimore city,21226,39.218,-76.5915,0,0,0.0,0,0
1135.0,Quarantine Road SLF,6100 Quarantine Road,Curtis Bay,MD,Baltimore city,21226,39.2085,-76.5549,0,0,0.0,0,0
1136.0,Reich's Ford Road SLF,9031 Reichs Ford Road,Frederick,MD,Frederick,21704,39.3754,-77.3528,0,0,0.0,0,0
1139.0,Saint Andrews SLF,44825 St. Andrews Church Road,California,MD,St. Mary's,20619,38.2909,-76.5233,0,0,0.0,0,0
1144.0,Westover/Ring SLF,8716 James Ring Road,Westover,MD,Somerset,21871,38.1191,-75.7328,0,0,0.0,0,0
1146.0,Bath LF,11 Detritus Drive,Bath,ME,Sagadahoc,4530,43.9396,-69.8189,0,0,0.0,0,0
1147.0,Brunswick LF,Graham Road,Brunswick,ME,Cumberland,4011,43.97,-70.03699999999999,0,0,0.0,0,0
1152.0,ecomaine Landfill/Ashfill,Green Road,Scarborough,ME,Cumberland,4074,43.63887,-70.369449,0,0,0.0,0,0
1158.0,Regional Waste Systems LF,64 Blueberry Road,Portland,ME,Cumberland,4102,43.6535,-70.3324,0,0,0.0,0,0
1148.0,"Caratunks Forks, West Forks (CFWF) Landfill",Lower Enchanted Road,West Forks,ME,Somerset,4985,45.3699,-70.0255,0,0,0.0,0,0
1150.0,Crossroads LF,357 Mercer Road,Norridgewock,ME,Somerset,4957,44.6888,-69.8652,0,0,0.0,0,0
1151.0,Dolby Landfill,Maine 157 (Main Street),East Millinocket,ME,Penobscot,4333,45.654964,-68.596293,0,0,0.0,0,0
1154.0,Juniper Ridge Landfill,2828 Bennoch Road,Old Town,ME,Penobscot,4468,44.9813,-68.7247,0,0,0.0,0,0
1156.0,Pine Tree Landfill,358 Emerson Mill Road,Hampden,ME,Penobscot,4444,44.7747,-68.8663,0,0,0.0,0,0
1153.0,Hatch Hill LF,Hatch Hill Road,Augusta,ME,Kennebec,4330,44.3228,-69.7087,0,0,0.0,0,0
1155.0,Little Squaw LF,Dyer Road,Greenville,ME,Piscataquis,4441,45.456,-69.6258,0,0,0.0,0,0
1161.0,Town of Dover-Foxcroft Landfill,"66 Landfill Road
Between Milo Road & Essex Street",Dover-Foxcroft,ME,Piscataquis,4426,45.19081,-69.20425999999999,0,0,0.0,0,0
1157.0,Presque Isle LF,202 Lathrop Road,Presque Isle,ME,Aroostook,4769,46.602,-68.039,0,0,0.0,0,0
1163.0,Tri-Community LF,303 Murphy Road,Fort Fairfield,ME,Aroostook,4736,46.86,-67.908,0,0,0.0,0,0
1165.0,Adrian Landfill,1970 North Ogden Highway,Adrian,MI,Lenawee,49221,41.89059,-83.9924,0,0,0.0,0,0
1166.0,Advanced Disposal Arbor Hills Landfill Inc.,10690 W. Six Mile Road,Northville,MI,Washtenaw,48168,42.40684,-83.55579,0,0,0.0,0,0
1167.0,Ann Arbor SLF Phase I & II,4150 Platt Road,Ann Arbor,MI,Washtenaw,48108,42.2278,-83.6997,0,0,0.0,0,0
1168.0,Autumn Hills Recycling & Disposal Facility,700 56th Avenue,Zeeland,MI,Ottawa,49464,42.78100000000001,-85.9207,0,0,0.0,0,0
1202.0,Ottawa County Farms Landfill,15550 68th Avenue,Coopersville,MI,Ottawa,49404,43.0502,-85.95682,0,0,0.0,0,0
1169.0,Brent Run Landfill,8335 Vienna Road,Montrose,MI,Genesee,48457,43.17684600000001,-83.838258,0,0,0.0,0,0
1175.0,Citizens Disposal Landfill,2361 West Grand Blanc Road,Grand Blanc,MI,Genesee,48439,42.91468,-83.72249000000002,0,0,0.0,0,0
1206.0,Richfield Landfill,11417 East Mt. Morris Road,Davison,MI,Genesee,48423,43.127376,-83.485555,0,0,0.0,0,0
1210.0,Seymour Road Landfill,13164 Seymour Road,Montrose,MI,Genesee,48457,43.1952,-83.8807,0,0,0.0,0,0
1170.0,C&C Landfill,14800 P Drive North,Marshall,MI,Calhoun,49068,42.36108,-85.0087,0,0,0.0,0,0
1174.0,Cereal City Landfill,580 Hubbard Street,Battle Creek,MI,Calhoun,49017,42.3475,-85.200333,0,0,0.0,0,0
1171.0,Carleton Farms Landfill,28800 Clark Road,New Boston,MI,Wayne,48164,42.09394,-83.42973,0,0,0.0,0,0
1177.0,"City Sand & Landfill, Inc.",46805 Willow Road,Belleville,MI,Wayne,48111,42.1156,-83.4938,0,0,0.0,0,0
1207.0,Riverview Land Preserve,20863 Grange Road,Riverview,MI,Wayne,48193,42.15621,-83.21208,0,0,0.0,0,0
1209.0,Sauk Trail Hills Landfill,5011 South Lilley Road,Canton,MI,Wayne,48188,42.2744,-83.4563,0,0,0.0,0,0
1218.0,Wayne Disposal LF,49350 N. I-94 Service Drive,Belleville,MI,Wayne,48111,42.2201,-83.53,0,0,0.0,0,0
1224.0,Woodland Meadows Landfill,"5900 Hannan Road
39900 Van Born Road (Canton)",Wayne,MI,Wayne,48184,42.2652,-83.4315,0,0,0.0,0,0
1172.0,Cedar Ridge Recycling & Disposal Facility,11633 Saunders Road,East Jordan,MI,Charlevoix,49727,45.24733300000001,-85.2095,0,0,0.0,0,0
1173.0,"Central Sanitary Landfill, Inc.",21545 Cannonsville Road,Pierson,MI,Montcalm,49339,43.33783,-85.52274,0,0,0.0,0,0
1176.0,City of Midland Sanitary LF,4311 East Ashman Street,Midland,MI,Midland,48642,43.62637,-84.17153,0,0,0.0,0,0
1178.0,Dafter Sanitary Landfill Inc,3962 West 12 Mile Road,Dafter,MI,Chippewa,49724,46.337,-84.444,0,0,0.0,0,0
1179.0,Delta County Landfill,5701 19th Avenue North,Escanaba,MI,Delta,49829,45.76467,-87.131,0,0,0.0,0,0
1180.0,Eagle Valley RDF,600 West Silverbell Road,Lake Orion,MI,Oakland,48359,42.72265,-83.25478000000003,0,0,0.0,0,0
1192.0,Lyon Development LF,5380 S. Milford Road,New Hudson,MI,Oakland,48165,42.5143,-83.616,0,0,0.0,0,0
1200.0,Oakland Heights Development Landfill,2350 Brown Road,Auburn Hills,MI,Oakland,48326,42.70846,-83.24873000000002,0,0,0.0,0,0
1181.0,Elk Run Sanitary Landfill,20667 5 Mile Highway,Onaway,MI,Presque Isle,49765,45.2824,-84.2238,0,0,0.0,0,0
1182.0,Forest Lawn Landfill,8230 W. Forest Lawn Road,Three Oaks,MI,Berrien,49128,41.775745,-86.65414399999997,0,0,0.0,0,0
1201.0,Orchard Hill SLF,3290 Hennessey Road,Watervliet,MI,Berrien,49098,42.17127,-86.28116,0,0,0.0,0,0
1212.0,Southeast Berrien County Landfill,3200 Chamberlain Road,Buchanan,MI,Berrien,49107,41.81354,-86.32723,0,0,0.0,0,0
1183.0,Glen's Sanitary Landfill Inc.,518 East Traverse Highway,Maple City,MI,Leelanau,49664,44.78978,-85.84100000000002,0,0,0.0,0,0
1184.0,Granger Grand River LF,8550 West Grand River Highway,Grand Ledge,MI,Clinton,48837,42.7896,-84.6935,0,0,0.0,0,0
1185.0,Granger Wood Street Landfill,16980 Wood Road,Lansing,MI,Clinton,48906,42.76355,-84.55778000000002,0,0,0.0,0,0
1186.0,Hastings Sanitary Landfill,1899 N. M-43 Highway,Hastings,MI,Barry,49058,42.681,-85.29799999999999,0,0,0.0,0,0
1188.0,Huron Landfill,4151 South McMillan Road,Bad Axe,MI,Huron,48413,43.76087,-83.05931,0,0,0.0,0,0
1189.0,K&W LF,5436 Highway M 38,Ontonagon,MI,Ontonagon,49953,46.7974,-89.1446,0,0,0.0,0,0
1190.0,Kent County - South Kent LF,10300 South Kent Drive SW,Byron Center,MI,Kent,49315,42.78271,-85.67065,0,0,0.0,0,0
1191.0,Livingston County Landfill,1551 E. Barron Road,Howell,MI,Livingston,48855,42.650167,-83.920333,0,0,0.0,0,0
1193.0,Manistee County LF,3890 Camp Road,Manistee,MI,Manistee,49660,44.1757,-86.26531999999997,0,0,0.0,0,0
1194.0,Marquette County SWL,600 County  Road NP,Marquette,MI,Marquette,49855,46.48959,-87.471525,0,0,0.0,0,0
1195.0,McGill Road Landfill,3895 McGill Road,Jackson,MI,Jackson,49201,42.2913,-84.3698,0,0,0.0,0,0
1196.0,Menominee Landfill,W6111 Elmwood Road,Menominee,MI,Menominee,49858,45.17373,-87.62938,0,0,0.0,0,0
1197.0,Montmorency-Oscoda-Alpena Landfill,6751 Landfill Road,Atlanta,MI,Montmorency,49709,44.935,-84.12,0,0,0.0,0,0
1198.0,Muskegon County SWF,9366 Apple Avenue,Ravenna,MI,Muskegon,49451,43.2351,-85.9905,0,0,0.0,0,0
1221.0,White Lake Landfill,3278 East Colby Road,Whitehall,MI,Muskegon,49461,43.4098,-86.3187,0,0,0.0,0,0
1199.0,Northern Oaks Recycling & Disposal Facility,513 North County Farm Road,Harrison,MI,Clare,48625,43.993,-84.79799999999999,0,0,0.0,0,0
1203.0,"People's Landfill, Inc.",4143 Rathbun Road,Birch Run,MI,Saginaw,48415,43.2802,-83.869,0,0,0.0,0,0
1208.0,Saginaw Valley Landfill,2145 South Miller Road,Saginaw,MI,Saginaw,48609,43.4042,-84.0823,0,0,0.0,0,0
1204.0,Pine Tree Acres LF Inc.,36600 29 Mile Road,Lenox,MI,Macomb,48048,42.7649,-82.7456,0,0,0.0,0,0
1211.0,Smiths Creek Landfill,6779 Smiths Creek Road,Smiths Creek,MI,St. Clair,48074,42.91743,-82.59168000000003,0,0,0.0,0,0
1214.0,Tri-City RDF,426 North Ruth Road,Carsonville,MI,Sanilac,48419,43.437,-82.7318,0,0,0.0,0,0
1215.0,Venice Park Recycling & Disposal Facility,9536 Lennon Road,Lennon,MI,Shiawassee,48449,42.979932,-83.972657,0,0,0.0,0,0
1216.0,Vienna Junction Landfill,6233 Hagman Road,Erie,MI,Monroe,48133,41.7329,-83.50908000000003,0,0,0.0,0,0
1217.0,Waters Landfill,11375 Sherman Road,Frederic,MI,Crawford,49733,44.855,-84.68,0,0,0.0,0,0
1219.0,Westside Recycling and Disposal Facility,14094 M-60 West,Three Rivers,MI,St. Joseph,49093,41.91555,-85.69200000000002,0,0,0.0,0,0
1220.0,Wexford County Landfill,990 US 131 North,Manton,MI,Wexford,49663,44.3528,-85.3994,0,0,0.0,0,0
1222.0,Whitefeather Landfill,2401 East Whitefeather Road,Pinconning,MI,Bay,48650,43.8963,-83.9482,0,0,0.0,0,0
1223.0,Wood Island Waste Management Inc.,E10081 M-28 East,Wetmore,MI,Alger,49895,46.37663,-86.59535,0,0,0.0,0,0
1225.0,Advanced Disposal Rolling Hills Landfill Inc.,175 County Road 37 NE,Buffalo,MN,Wright,55313,45.244,-93.888,0,0,0.0,0,0
1226.0,Albert Lea Landfill,22590 740th Avenue,Albert Lea,MN,Freeborn,56007,43.682,-93.38,0,0,0.0,0,0
1227.0,Anoka-Ramsey Sanitary LF,14730 Sunfish Lake Boulevard NW,Ramsey,MN,Anoka,55303,45.2393,-93.4293,0,0,0.0,0,0
